[
  {
    "name": "Dream Hotel فندق دريم قنا",
    "rating": 3.8,
    "reviews": 761,
    "tags": "فندق,إفطار مجاني,WiFi",
    "price_range": "من 1,090 جنيه/ليلة",
    "lat": 26.1610808,
    "lng": 32.7259593,
    "city": "قنا",
    "description": "فندق في قنا. يوفر إفطار مجاني، فطور، وWi-Fi."
  },
  {
    "name": "Grand Hotel Qena",
    "rating": 3.7,
    "reviews": 1471,
    "tags": "فندق 3 نجوم,مصعد,إفطار مجاني,مكيف",
    "price_range": "من 1,436 جنيه/ليلة",
    "lat": 26.1604495,
    "lng": 32.7244478,
    "city": "قنا",
    "description": "فندق 3 نجوم يمتلك مصعد وقسم استقبال. إفطار مجاني، مكيّف، Wi-Fi.",
    "is_featured": true
  },
  {
    "name": "فندق الياسمين Elyasmene Hotel",
    "rating": 3.9,
    "reviews": 339,
    "tags": "فندق,مكيف,WiFi مجاني,إفطار",
    "price_range": "من 2,565 جنيه/ليلة",
    "lat": 26.1589277,
    "lng": 32.7224134,
    "city": "قنا",
    "description": "فندق في قنا. اتصال Wi-Fi مجاني، مكيّف هواء، إفطار."
  },
  {
    "name": "فندق بسمة حتحور",
    "rating": 4.0,
    "reviews": 1739,
    "tags": "فندق,مسبح,موقف مجاني,إفطار مجاني,WiFi مجاني",
    "lat": 26.1492241,
    "lng": 32.7129062,
    "city": "قنا",
    "description": "فندق بسيط يضم مسبحًا خارجيًا. موقف سيارات وإفطار وWi-Fi مجاني.",
    "is_featured": true
  },
  {
    "name": "فندق نيو بالاس",
    "rating": 3.5,
    "reviews": 483,
    "tags": "فندق,مكيف,WiFi",
    "phone": "01002375428",
    "alt_phone": "0965322509",
    "address": "ميدان المحطة، خلف محطة بنزين موبيل، حي غرب، قنا",
    "lat": 26.161357,
    "lng": 32.726961,
    "city": "قنا",
    "description": "فندق في قنا قريب من محطة القطار. مكيف هواء وWi-Fi."
  },
  {
    "name": "ROYAL HOTEL فندق رويال قنا",
    "rating": 4.0,
    "reviews": 197,
    "tags": "فندق نجمتين,موقف مجاني,إفطار مجاني,WiFi مجاني,مكيف",
    "lat": 26.1611896,
    "lng": 32.7066609,
    "city": "قنا",
    "description": "فندق بنجمتين. موقف سيارات وإفطار واتصال Wi-Fi مجاني. مكيّف هواء."
  },
  {
    "name": "فندق نزل الشباب سيدي عبد الرحيم قنا",
    "rating": 4.3,
    "reviews": 88,
    "tags": "فندق,نزل شباب",
    "lat": 26.1764023,
    "lng": 32.7323746,
    "city": "قنا",
    "description": "نزل الشباب بمنطقة سيدي عبد الرحيم بقنا."
  },
  {
    "name": "بيت للشيخ (سكن عائلي)",
    "tags": "سكن مع عائلة",
    "lat": 26.155061,
    "lng": 32.7160121,
    "city": "قنا",
    "description": "سكن مع عائلة (Homestay) في قنا."
  }
]
