[
  {
    "name": "محطة أتوبيسات قنا",
    "rating": 3.9, "reviews": 397,
    "tags": "محطة أتوبيس,نقل عام",
    "phone": "01114424377",
    "address": "الشنهورية، قسم قنا، مركز قنا، 5P86+3PC",
    "working_hours": "24 ساعة",
    "lat": 26.1653693, "lng": 32.7119483,
    "city": "قنا",
    "description": "مجمع أتوبيسات قنا لجميع الشركات.",
    "is_featured": true
  },
  {
    "name": "محطة قطار قنا",
    "rating": 4.0, "reviews": 3219,
    "tags": "محطة قطار,سكة حديد",
    "address": "المحطة، قنا",
    "working_hours": "24 ساعة",
    "lat": 26.1622457, "lng": 32.7273032,
    "city": "قنا",
    "description": "محطة قطار قنا الرئيسية - شركة قطار المدن الكبرى.",
    "is_featured": true
  },
  {
    "name": "محطة قطار قنا - المدخل الشرقي",
    "rating": 3.3, "reviews": 3,
    "tags": "محطة قطار",
    "lat": 26.1622828, "lng": 32.7269448,
    "city": "قنا",
    "description": "مدخل جانبي لمحطة قطار قنا."
  },
  {
    "name": "محطة جو باص قنا Go Bus",
    "rating": 3.7, "reviews": 677,
    "tags": "أتوبيس,جو باص,خدمة سفر",
    "phone": "01287299999",
    "address": "طريق القاهرة أسوان إلى نجع حمادي، قنا",
    "working_hours": "24 ساعة",
    "website": "https://go-bus.com/",
    "lat": 26.1639647, "lng": 32.7263693,
    "city": "قنا",
    "description": "شركة جو باص للنقل بين قنا والقاهرة ونجع حمادي."
  },
  {
    "name": "شركة النهار جيت للنقل البري",
    "rating": 3.2, "reviews": 45,
    "tags": "شركة نقل,سوبر جيت,نجع حمادي",
    "phone": "01008644242",
    "address": "بجوار محطة السكة الحديد، قنا",
    "working_hours": "يغلق 12:30 ص",
    "lat": 26.1590583, "lng": 32.7218228,
    "city": "قنا",
    "description": "شركة سوبر جيت من نجع حمادي إلى القاهرة."
  },
  {
    "name": "محطة أتوبيس شركة الصعيد بقفط",
    "rating": 4.0, "reviews": 1,
    "tags": "أتوبيس,شركة الصعيد",
    "phone": "01279071121",
    "address": "XRV5+R4F، كوبري المرور، قفط",
    "lat": 25.994559, "lng": 32.807797,
    "city": "قفط",
    "description": "محطة أتوبيس شركة الصعيد للنقل بقفط."
  },
  {
    "name": "محطة نقل قفط",
    "rating": 4.0, "reviews": 26,
    "tags": "محطة نقل",
    "phone": "01094248838",
    "address": "XQVW+7GV، قفط - قنا، قسم قنا",
    "working_hours": "24 ساعة",
    "lat": 25.9932417, "lng": 32.7962836,
    "city": "قفط",
    "description": "محطة نقل قفط جنوب قنا بالقرب من الأقصر."
  },
  {
    "name": "وايت باص قنا White Bus",
    "rating": 3.8, "reviews": 8,
    "tags": "أتوبيس,شركة حافلات",
    "phone": "0653408011",
    "website": "http://www.whitebusegypt.com/",
    "city": "قنا",
    "description": "شركة وايت باص للنقل."
  },
  {
    "name": "الصعيد للنقل والسياحة",
    "rating": 3.7, "reviews": 12,
    "tags": "نقل,سياحة",
    "phone": "0965325068",
    "address": "شارع المستشفى الأميري، قنا",
    "lat": 26.155061, "lng": 32.7160121,
    "city": "قنا",
    "description": "شركة الصعيد للنقل والسياحة."
  },
  {
    "name": "شركة فورباص للنقل البري",
    "rating": 5.0, "reviews": 2,
    "tags": "شركة نقل,أتوبيس",
    "phone": "01030565720",
    "address": "أمام محطة بنزين ميلاد، قنا",
    "working_hours": "24 ساعة",
    "lat": 26.1443171, "lng": 32.6978222,
    "city": "قنا",
    "description": "شركة فورباص للنقل بين قنا والشرقية."
  },
  {
    "name": "محطة قوص للقطار السريع",
    "rating": 5.0, "reviews": 1,
    "tags": "محطة قطار سريع",
    "address": "WVHW+255، قوص",
    "lat": 25.9275036, "lng": 32.8954834,
    "city": "قوص",
    "description": "محطة القطار السريع بقوص."
  },
  {
    "name": "محطة أتوبيس بقوص",
    "rating": 4.5, "reviews": 2,
    "tags": "محطة أتوبيس,موقف سيارات",
    "address": "WPQV+5RR، قوص",
    "lat": 25.9379895, "lng": 32.744517,
    "city": "قوص",
    "description": "محطة أتوبيسات بقوص."
  },
  {
    "name": "محطة القطار السريع بقنا",
    "rating": 1.5, "reviews": 2,
    "tags": "محطة قطار سريع",
    "address": "4QX9+9HJ، قنا",
    "city": "قنا",
    "description": "محطة القطار السريع بقنا."
  },
  {
    "name": "محطة قطارات قفط Qift Railway Services",
    "rating": 3.7, "reviews": 234,
    "tags": "محطة قطار",
    "address": "XRV2+J8M، قفط",
    "city": "قفط",
    "description": "محطة قطارات قفط - يوجد دورات مياه نظيفة ومقهى ومسجد."
  },
  {
    "name": "الاتحاد العربي سوبر جيت",
    "rating": 3.0, "reviews": 9,
    "tags": "سوبر جيت,شركة نقل",
    "address": "الشنهورية، قسم قنا، 5P86+2RQ",
    "working_hours": "24 ساعة",
    "city": "قنا",
    "description": "الاتحاد العربي للنقل السياحي - سوبر جيت."
  },
  {
    "name": "مركز الفتح لخدمات المركبات",
    "rating": 5.0, "reviews": 1,
    "tags": "خدمة مركبات",
    "phone": "01001467722",
    "address": "3QRH+PFQ، الأشراف الغربية طريق قنا الأقصر، قنا",
    "working_hours": "يغلق 9 م",
    "city": "قنا",
    "description": "مركز خدمات للمركبات."
  },
  {
    "name": "مركز تحويل وشحن غازتك GasTec",
    "rating": 3.5, "reviews": 2,
    "tags": "غاز طبيعي للسيارات",
    "phone": "01008706709",
    "address": "5P65+37M، بجوار مستشفى قنا العام",
    "city": "قنا",
    "description": "مركز تحويل السيارات للغاز الطبيعي (GasTec)."
  },
  {
    "name": "محطة سكك حديد أبنود",
    "rating": 4.2, "reviews": 10,
    "tags": "محطة قطار,شباك تذاكر",
    "address": "3Q3W+HM، أبنود، قنا",
    "city": "أبنود",
    "description": "محطة سكك حديد قرية أبنود."
  }
]
