{
  "hospitals": [
    {
      "cat": "hospitals",
      "name": "الوحده الصحية",
      "lat": 26.1181687,
      "lng": 32.432933,
      "address": "الصبريات",
      "city": "",
      "phone": "",
      "website": "",
      "working_hours": "",
      "description": "",
      "tags": ""
    },
    {
      "cat": "hospitals",
      "name": "مستشفي قوص المركزى",
      "lat": 25.9217049,
      "lng": 32.7515625,
      "address": "",
      "city": "",
      "phone": "",
      "website": "",
      "working_hours": "",
      "description": "",
      "tags": "hospital"
    },
    {
      "cat": "hospitals",
      "name": "عيادة جراحة العظام دكتور سعيد احمد",
      "lat": 25.919562,
      "lng": 32.756759,
      "address": "الجمهورية",
      "city": "",
      "phone": "+20962210422",
      "website": "",
      "working_hours": "Sa-Th 12:00-15:00, 17:00-21:00",
      "description": "",
      "tags": "clinic"
    },
    {
      "cat": "hospitals",
      "name": "د.سامح ظريف",
      "lat": 25.6985339,
      "lng": 32.6407748,
      "address": "",
      "city": "",
      "phone": "",
      "website": "",
      "working_hours": "",
      "description": "",
      "tags": ""
    },
    {
      "cat": "hospitals",
      "name": "د.محمد بدوى",
      "lat": 25.6929075,
      "lng": 32.6401007,
      "address": "",
      "city": "",
      "phone": "",
      "website": "",
      "working_hours": "",
      "description": "",
      "tags": ""
    },
    {
      "cat": "hospitals",
      "name": "د.مؤنس عبد الحميد",
      "lat": 25.6939886,
      "lng": 32.639826,
      "address": "",
      "city": "",
      "phone": "",
      "website": "",
      "working_hours": "",
      "description": "",
      "tags": "clinic"
    },
    {
      "cat": "hospitals",
      "name": "د.ايفيت ظريف",
      "lat": 25.7030329,
      "lng": 32.6465328,
      "address": "",
      "city": "",
      "phone": "",
      "website": "",
      "working_hours": "",
      "description": "",
      "tags": "clinic"
    },
    {
      "cat": "hospitals",
      "name": "د.رفيق زكرى",
      "lat": 25.6913494,
      "lng": 32.6487472,
      "address": "",
      "city": "",
      "phone": "",
      "website": "",
      "working_hours": "",
      "description": "",
      "tags": ""
    },
    {
      "cat": "hospitals",
      "name": "صديق احمد",
      "lat": 25.6890049,
      "lng": 32.6403654,
      "address": "",
      "city": "",
      "phone": "",
      "website": "",
      "working_hours": "",
      "description": "",
      "tags": ""
    },
    {
      "cat": "hospitals",
      "name": "فهد فاضل",
      "lat": 25.6921967,
      "lng": 32.6402913,
      "address": "",
      "city": "",
      "phone": "",
      "website": "",
      "working_hours": "",
      "description": "",
      "tags": ""
    },
    {
      "cat": "hospitals",
      "name": "وحدة صحة الغريرة",
      "lat": 25.5025387,
      "lng": 32.4759886,
      "address": "",
      "city": "",
      "phone": "",
      "website": "",
      "working_hours": "",
      "description": "",
      "tags": ""
    },
    {
      "cat": "hospitals",
      "name": "د/ نوبي ابوزيد جيلاني",
      "lat": 25.6903634,
      "lng": 32.6407377,
      "address": "Television",
      "city": "",
      "phone": "01155541121",
      "website": "",
      "working_hours": "Tu-Th, Sa-Su 10:00-22:00",
      "description": "",
      "tags": ""
    },
    {
      "cat": "hospitals",
      "name": "Nile Medical Centre (PCR tests)",
      "lat": 25.6869378,
      "lng": 32.6349774,
      "address": "",
      "city": "",
      "phone": "",
      "website": "",
      "working_hours": "Mo-Su 09:00-18:00",
      "description": "",
      "tags": "clinic"
    },
    {
      "cat": "hospitals",
      "name": "مستشفي النيل نقادة",
      "lat": 25.8984282,
      "lng": 32.7219566,
      "address": "شارع 23 يوليو",
      "city": "",
      "phone": "",
      "website": "",
      "working_hours": "",
      "description": "",
      "tags": ""
    },
    {
      "cat": "hospitals",
      "name": "مستشفي كليوباترا",
      "lat": 25.7000072,
      "lng": 32.6424326,
      "address": "",
      "city": "",
      "phone": "",
      "website": "",
      "working_hours": "",
      "description": "",
      "tags": ""
    },
    {
      "cat": "hospitals",
      "name": "مستشفى الكرنك الدولي",
      "lat": 25.7086635,
      "lng": 32.6454737,
      "address": "",
      "city": "",
      "phone": "",
      "website": "",
      "working_hours": "",
      "description": "",
      "tags": "hospital"
    },
    {
      "cat": "hospitals",
      "name": "Luxor International Hospital",
      "lat": 25.6871551,
      "lng": 32.6394684,
      "address": "",
      "city": "",
      "phone": "",
      "website": "",
      "working_hours": "",
      "description": "",
      "tags": "hospital"
    },
    {
      "cat": "hospitals",
      "name": "مركز الاقصر الطبى",
      "lat": 25.6887163,
      "lng": 32.633498,
      "address": "",
      "city": "",
      "phone": "",
      "website": "",
      "working_hours": "",
      "description": "",
      "tags": ""
    },
    {
      "cat": "hospitals",
      "name": "مستشفي قنا العام",
      "lat": 26.1590896,
      "lng": 32.7072503,
      "address": "شارع كوبري دندرة",
      "city": "",
      "phone": "",
      "website": "",
      "working_hours": "",
      "description": "",
      "tags": ""
    },
    {
      "cat": "hospitals",
      "name": "مستشفي أبو تشت المركزي",
      "lat": 26.1257509,
      "lng": 32.1015157,
      "address": "",
      "city": "",
      "phone": "",
      "website": "",
      "working_hours": "",
      "description": "",
      "tags": ""
    },
    {
      "cat": "hospitals",
      "name": "rehabilitation center",
      "lat": 25.7616487,
      "lng": 32.7878422,
      "address": "",
      "city": "",
      "phone": "",
      "website": "",
      "working_hours": "",
      "description": "",
      "tags": "rehabilitation"
    },
    {
      "cat": "hospitals",
      "name": "مستشفى 175 سرير",
      "lat": 26.2515788,
      "lng": 32.7422072,
      "address": "",
      "city": "New Qena",
      "phone": "",
      "website": "",
      "working_hours": "",
      "description": "",
      "tags": "hospital"
    }
  ],
  "pharmacies": [
    {
      "cat": "pharmacies",
      "name": "د/احمد سمير",
      "lat": 26.1384539,
      "lng": 32.5892963,
      "address": "",
      "city": "",
      "phone": "01020304550",
      "website": "",
      "working_hours": "",
      "description": "",
      "tags": ""
    },
    {
      "cat": "pharmacies",
      "name": "Dr Abdullah",
      "lat": 25.7080044,
      "lng": 32.644247,
      "address": "",
      "city": "",
      "phone": "+201028262800",
      "website": "",
      "working_hours": "",
      "description": "",
      "tags": ""
    },
    {
      "cat": "pharmacies",
      "name": "Mostafa Hashim Pharmacy",
      "lat": 25.7237565,
      "lng": 32.6539752,
      "address": "",
      "city": "",
      "phone": "",
      "website": "",
      "working_hours": "",
      "description": "",
      "tags": "pharmacy"
    },
    {
      "cat": "pharmacies",
      "name": "Alaa Nubian New Pharmacy",
      "lat": 25.7234292,
      "lng": 32.6583597,
      "address": "",
      "city": "",
      "phone": "",
      "website": "",
      "working_hours": "",
      "description": "",
      "tags": "pharmacy"
    },
    {
      "cat": "pharmacies",
      "name": "Dr Yousry",
      "lat": 25.7255916,
      "lng": 32.6599045,
      "address": "",
      "city": "",
      "phone": "",
      "website": "",
      "working_hours": "",
      "description": "",
      "tags": "pharmacy"
    }
  ],
  "restaurants": [
    {
      "cat": "restaurants",
      "name": "جوهرة النيل",
      "lat": 25.6867839,
      "lng": 32.6364123,
      "address": "",
      "city": "",
      "phone": "",
      "website": "",
      "working_hours": "",
      "description": "",
      "tags": ""
    },
    {
      "cat": "restaurants",
      "name": "Tutti Frutti",
      "lat": 25.6874599,
      "lng": 32.6346703,
      "address": "",
      "city": "",
      "phone": "",
      "website": "",
      "working_hours": "",
      "description": "",
      "tags": ""
    },
    {
      "cat": "restaurants",
      "name": "Chez Omar / Egyptian Corner",
      "lat": 25.7019602,
      "lng": 32.6437635,
      "address": "",
      "city": "",
      "phone": "",
      "website": "",
      "working_hours": "",
      "description": "",
      "tags": "regional"
    },
    {
      "cat": "restaurants",
      "name": "ام هاشم",
      "lat": 25.7022396,
      "lng": 32.6439769,
      "address": "",
      "city": "",
      "phone": "",
      "website": "",
      "working_hours": "",
      "description": "",
      "tags": "regional"
    },
    {
      "cat": "restaurants",
      "name": "ماكدونالدز",
      "lat": 25.6985459,
      "lng": 32.6400857,
      "address": "",
      "city": "",
      "phone": "",
      "website": "",
      "working_hours": "",
      "description": "",
      "tags": "burger"
    },
    {
      "cat": "restaurants",
      "name": "Sibads",
      "lat": 25.697345,
      "lng": 32.6393623,
      "address": "",
      "city": "",
      "phone": "",
      "website": "",
      "working_hours": "",
      "description": "",
      "tags": ""
    },
    {
      "cat": "restaurants",
      "name": "Aboudi Restaurant",
      "lat": 25.6985836,
      "lng": 32.6401539,
      "address": "",
      "city": "",
      "phone": "",
      "website": "",
      "working_hours": "",
      "description": "",
      "tags": ""
    },
    {
      "cat": "restaurants",
      "name": "Sofra",
      "lat": 25.6948929,
      "lng": 32.6422607,
      "address": "",
      "city": "",
      "phone": "",
      "website": "",
      "working_hours": "",
      "description": "",
      "tags": "egyptian"
    },
    {
      "cat": "restaurants",
      "name": "Pizza Hut",
      "lat": 25.6851144,
      "lng": 32.6303241,
      "address": "",
      "city": "",
      "phone": "",
      "website": "",
      "working_hours": "",
      "description": "",
      "tags": "pizza"
    },
    {
      "cat": "restaurants",
      "name": "دجاج كنتاكي",
      "lat": 25.6850255,
      "lng": 32.6300036,
      "address": "",
      "city": "",
      "phone": "",
      "website": "",
      "working_hours": "",
      "description": "",
      "tags": "chicken"
    },
    {
      "cat": "restaurants",
      "name": "Elhaty Restaurant",
      "lat": 25.696583,
      "lng": 32.6439375,
      "address": "",
      "city": "",
      "phone": "",
      "website": "",
      "working_hours": "",
      "description": "",
      "tags": ""
    },
    {
      "cat": "restaurants",
      "name": "African Cuisine Restaurant",
      "lat": 25.7046954,
      "lng": 32.6335257,
      "address": "al tmsalyn",
      "city": "",
      "phone": "",
      "website": "",
      "working_hours": "",
      "description": "",
      "tags": ""
    },
    {
      "cat": "restaurants",
      "name": "Pub 2000 Esquire",
      "lat": 25.6917114,
      "lng": 32.6352441,
      "address": "",
      "city": "",
      "phone": "+201223328563",
      "website": "http://esquire-pub2000.com",
      "working_hours": "",
      "description": "",
      "tags": "african;tea;american;steak_house;chicken;fish_and_chips;curry"
    },
    {
      "cat": "restaurants",
      "name": "Blue Sky Restaurant",
      "lat": 25.7020452,
      "lng": 32.6332761,
      "address": "",
      "city": "",
      "phone": "",
      "website": "",
      "working_hours": "",
      "description": "",
      "tags": "arab;mediterranean"
    },
    {
      "cat": "restaurants",
      "name": "El Zaeem",
      "lat": 25.694829,
      "lng": 32.6399547,
      "address": "Salah El-Din Square",
      "city": "",
      "phone": "01157999333",
      "website": "",
      "working_hours": "",
      "description": "",
      "tags": "Pizza, Shawrma, Falafel, Chips, Sandwich"
    },
    {
      "cat": "restaurants",
      "name": "بندق",
      "lat": 25.6936295,
      "lng": 32.6394602,
      "address": "",
      "city": "",
      "phone": "",
      "website": "",
      "working_hours": "",
      "description": "",
      "tags": "arab;grill;falafel"
    },
    {
      "cat": "restaurants",
      "name": "Hotel Sheherazade",
      "lat": 25.705269,
      "lng": 32.6319193,
      "address": "",
      "city": "Gezira al Bairat",
      "phone": "+20 100 6115939",
      "website": "https://hotelsheherazade.com",
      "working_hours": "",
      "description": "",
      "tags": "regional;international"
    },
    {
      "cat": "restaurants",
      "name": "Kam Thai",
      "lat": 25.6866674,
      "lng": 32.6350118,
      "address": "",
      "city": "",
      "phone": "",
      "website": "",
      "working_hours": "Mo-Fr 13:00-21:00",
      "description": "",
      "tags": "thai"
    },
    {
      "cat": "restaurants",
      "name": "Nour el balad",
      "lat": 25.7172423,
      "lng": 32.5957457,
      "address": "street el malkata",
      "city": "",
      "phone": "00201001295812",
      "website": "",
      "working_hours": "24/7",
      "description": "",
      "tags": "arab"
    },
    {
      "cat": "restaurants",
      "name": "Pizza Roma IT",
      "lat": 25.6884689,
      "lng": 32.6346382,
      "address": "",
      "city": "",
      "phone": "",
      "website": "",
      "working_hours": "",
      "description": "",
      "tags": "italian;pizza"
    },
    {
      "cat": "restaurants",
      "name": "Quick pizza",
      "lat": 25.6925802,
      "lng": 32.6401146,
      "address": "",
      "city": "",
      "phone": "",
      "website": "",
      "working_hours": "",
      "description": "",
      "tags": ""
    },
    {
      "cat": "restaurants",
      "name": "حواوشي الاسكندراني",
      "lat": 26.1600635,
      "lng": 32.7232468,
      "address": "",
      "city": "",
      "phone": "",
      "website": "",
      "working_hours": "",
      "description": "",
      "tags": "crepe;pizza;sandwich"
    },
    {
      "cat": "restaurants",
      "name": "Kher and Baraka restaurant",
      "lat": 25.7017363,
      "lng": 32.6436201,
      "address": "",
      "city": "",
      "phone": "",
      "website": "",
      "working_hours": "",
      "description": "",
      "tags": "kebab"
    },
    {
      "cat": "restaurants",
      "name": "Panorama Restaurant & Coffee",
      "lat": 25.7300187,
      "lng": 32.6143532,
      "address": "",
      "city": "",
      "phone": "",
      "website": "",
      "working_hours": "",
      "description": "",
      "tags": "barbecue"
    },
    {
      "cat": "restaurants",
      "name": "El Fayrouz",
      "lat": 25.7052581,
      "lng": 32.6315787,
      "address": "",
      "city": "",
      "phone": "",
      "website": "",
      "working_hours": "",
      "description": "",
      "tags": "regional;international"
    },
    {
      "cat": "restaurants",
      "name": "Abu el Hasan Shazly",
      "lat": 25.6953885,
      "lng": 32.6420551,
      "address": "",
      "city": "",
      "phone": "",
      "website": "",
      "working_hours": "",
      "description": "",
      "tags": "arab"
    },
    {
      "cat": "restaurants",
      "name": "Maratonga",
      "lat": 25.7182172,
      "lng": 32.6023209,
      "address": "",
      "city": "",
      "phone": "",
      "website": "",
      "working_hours": "",
      "description": "",
      "tags": ""
    },
    {
      "cat": "restaurants",
      "name": "مطعم أحباب الحبيب",
      "lat": 25.6956629,
      "lng": 32.6420172,
      "address": "",
      "city": "",
      "phone": "",
      "website": "",
      "working_hours": "24/7",
      "description": "",
      "tags": "friture"
    },
    {
      "cat": "restaurants",
      "name": "Oasis Palace",
      "lat": 25.7050079,
      "lng": 32.6438871,
      "address": "",
      "city": "",
      "phone": "",
      "website": "",
      "working_hours": "",
      "description": "",
      "tags": ""
    },
    {
      "cat": "restaurants",
      "name": "Abo Ashraf",
      "lat": 25.6976647,
      "lng": 32.6430015,
      "address": "",
      "city": "",
      "phone": "",
      "website": "",
      "working_hours": "",
      "description": "",
      "tags": ""
    },
    {
      "cat": "restaurants",
      "name": "حاتي الحريف",
      "lat": 25.6900024,
      "lng": 32.6408902,
      "address": "Television",
      "city": "",
      "phone": "",
      "website": "",
      "working_hours": "",
      "description": "",
      "tags": ""
    },
    {
      "cat": "restaurants",
      "name": "Alaa el Din",
      "lat": 25.6994016,
      "lng": 32.6411458,
      "address": "",
      "city": "",
      "phone": "",
      "website": "",
      "working_hours": "",
      "description": "",
      "tags": ""
    },
    {
      "cat": "restaurants",
      "name": "مطعم كروكودايل",
      "lat": 25.7033308,
      "lng": 32.6331176,
      "address": "",
      "city": "",
      "phone": "",
      "website": "",
      "working_hours": "",
      "description": "",
      "tags": ""
    },
    {
      "cat": "restaurants",
      "name": "Al-Sahaby Lane",
      "lat": 25.7024206,
      "lng": 32.6427341,
      "address": "",
      "city": "",
      "phone": "",
      "website": "",
      "working_hours": "",
      "description": "",
      "tags": ""
    },
    {
      "cat": "restaurants",
      "name": "Jamboree Restaurant",
      "lat": 25.7011892,
      "lng": 32.6426272,
      "address": "",
      "city": "",
      "phone": "",
      "website": "",
      "working_hours": "",
      "description": "",
      "tags": ""
    },
    {
      "cat": "restaurants",
      "name": "Al-Sahaby Lane Restaurant",
      "lat": 25.7015002,
      "lng": 32.642333,
      "address": "",
      "city": "",
      "phone": "",
      "website": "",
      "working_hours": "",
      "description": "",
      "tags": ""
    },
    {
      "cat": "restaurants",
      "name": "Sunflower Restaurant",
      "lat": 25.7030792,
      "lng": 32.6334097,
      "address": "",
      "city": "",
      "phone": "",
      "website": "",
      "working_hours": "",
      "description": "",
      "tags": ""
    },
    {
      "cat": "restaurants",
      "name": "Street food with tables. 5egp for 1 falafel sandwich",
      "lat": 25.6960086,
      "lng": 32.6425795,
      "address": "",
      "city": "",
      "phone": "",
      "website": "",
      "working_hours": "",
      "description": "",
      "tags": ""
    },
    {
      "cat": "restaurants",
      "name": "حسنين للمأكولات السوريه",
      "lat": 26.1624608,
      "lng": 32.7258303,
      "address": "",
      "city": "",
      "phone": "",
      "website": "",
      "working_hours": "",
      "description": "",
      "tags": ""
    },
    {
      "cat": "restaurants",
      "name": "El Zaeem Restaurant",
      "lat": 25.7014565,
      "lng": 32.643919,
      "address": "",
      "city": "",
      "phone": "",
      "website": "",
      "working_hours": "",
      "description": "",
      "tags": ""
    },
    {
      "cat": "restaurants",
      "name": "Peace Abou Zeid",
      "lat": 25.7108749,
      "lng": 32.645977,
      "address": "",
      "city": "",
      "phone": "",
      "website": "",
      "working_hours": "",
      "description": "",
      "tags": "local"
    },
    {
      "cat": "restaurants",
      "name": "Alladin's Restaurant",
      "lat": 25.6862829,
      "lng": 32.6214526,
      "address": "",
      "city": "",
      "phone": "",
      "website": "",
      "working_hours": "",
      "description": "",
      "tags": ""
    },
    {
      "cat": "restaurants",
      "name": "Restaurant Mohammed",
      "lat": 25.7225074,
      "lng": 32.6046519,
      "address": "",
      "city": "",
      "phone": "",
      "website": "",
      "working_hours": "",
      "description": "",
      "tags": ""
    },
    {
      "cat": "restaurants",
      "name": "Al zaeem",
      "lat": 25.6945083,
      "lng": 32.6356881,
      "address": "",
      "city": "",
      "phone": "",
      "website": "",
      "working_hours": "",
      "description": "",
      "tags": ""
    },
    {
      "cat": "restaurants",
      "name": "Koshari",
      "lat": 25.6986224,
      "lng": 32.6414552,
      "address": "",
      "city": "",
      "phone": "",
      "website": "",
      "working_hours": "",
      "description": "",
      "tags": ""
    },
    {
      "cat": "restaurants",
      "name": "Sunflower Garden",
      "lat": 25.7056247,
      "lng": 32.6321968,
      "address": "",
      "city": "",
      "phone": "",
      "website": "",
      "working_hours": "",
      "description": "",
      "tags": ""
    },
    {
      "cat": "restaurants",
      "name": "Gerda's Garden",
      "lat": 25.6916896,
      "lng": 32.6364598,
      "address": "",
      "city": "",
      "phone": "",
      "website": "",
      "working_hours": "Tu-Su 11:00-23:00",
      "description": "",
      "tags": "german;regional"
    },
    {
      "cat": "restaurants",
      "name": "Marina",
      "lat": 25.7141281,
      "lng": 32.6478525,
      "address": "",
      "city": "",
      "phone": "",
      "website": "",
      "working_hours": "",
      "description": "riverside restaurant & cafe",
      "tags": "coffee_shop;crepe;juice;burger;kebab;pizza;smoothie"
    },
    {
      "cat": "restaurants",
      "name": "Local street food",
      "lat": 25.7055152,
      "lng": 32.6336809,
      "address": "",
      "city": "",
      "phone": "",
      "website": "",
      "working_hours": "",
      "description": "",
      "tags": ""
    },
    {
      "cat": "restaurants",
      "name": "THEBES Restaurant",
      "lat": 25.7019412,
      "lng": 32.6332095,
      "address": "",
      "city": "",
      "phone": "01096462646",
      "website": "",
      "working_hours": "",
      "description": "",
      "tags": "regional"
    },
    {
      "cat": "restaurants",
      "name": "Al Ramsseum",
      "lat": 25.7289528,
      "lng": 32.6121196,
      "address": "",
      "city": "",
      "phone": "",
      "website": "",
      "working_hours": "",
      "description": "",
      "tags": ""
    },
    {
      "cat": "restaurants",
      "name": "El Kababgy",
      "lat": 25.6967102,
      "lng": 32.6360606,
      "address": "",
      "city": "",
      "phone": "",
      "website": "",
      "working_hours": "",
      "description": "",
      "tags": ""
    },
    {
      "cat": "restaurants",
      "name": "Good cheap falafel",
      "lat": 25.6941226,
      "lng": 32.6397749,
      "address": "",
      "city": "",
      "phone": "",
      "website": "",
      "working_hours": "",
      "description": "",
      "tags": ""
    },
    {
      "cat": "restaurants",
      "name": "Good cheap vegetarian street food",
      "lat": 25.6944096,
      "lng": 32.6397348,
      "address": "",
      "city": "",
      "phone": "",
      "website": "",
      "working_hours": "",
      "description": "",
      "tags": ""
    },
    {
      "cat": "restaurants",
      "name": "Good cheap vegetarian fast food",
      "lat": 25.6944232,
      "lng": 32.6394906,
      "address": "",
      "city": "",
      "phone": "",
      "website": "",
      "working_hours": "",
      "description": "",
      "tags": ""
    },
    {
      "cat": "restaurants",
      "name": "الاسكنء انع",
      "lat": 25.6934044,
      "lng": 32.6402001,
      "address": "شارع التلفزيون",
      "city": "",
      "phone": "",
      "website": "",
      "working_hours": "",
      "description": "",
      "tags": "american;arab;asian;chicken;local;noodles;oriental"
    },
    {
      "cat": "restaurants",
      "name": "البيت الري",
      "lat": 25.6868388,
      "lng": 32.6222582,
      "address": "Al Aqaletah, Al Qarna, Luxor Governorate",
      "city": "",
      "phone": "0100 850 3597",
      "website": "",
      "working_hours": "",
      "description": "",
      "tags": "regional"
    },
    {
      "cat": "restaurants",
      "name": "Snack Time",
      "lat": 25.6986323,
      "lng": 32.6402876,
      "address": "",
      "city": "",
      "phone": "",
      "website": "",
      "working_hours": "",
      "description": "",
      "tags": ""
    },
    {
      "cat": "restaurants",
      "name": "El Hussein Restaurant",
      "lat": 25.7058644,
      "lng": 32.633175,
      "address": "",
      "city": "",
      "phone": "",
      "website": "",
      "working_hours": "",
      "description": "",
      "tags": ""
    },
    {
      "cat": "restaurants",
      "name": "Alcaptain Restaurant",
      "lat": 25.7000119,
      "lng": 32.6321575,
      "address": "",
      "city": "",
      "phone": "",
      "website": "",
      "working_hours": "",
      "description": "",
      "tags": "seafood"
    },
    {
      "cat": "restaurants",
      "name": "Green Oasis",
      "lat": 25.7004732,
      "lng": 32.630979,
      "address": "",
      "city": "",
      "phone": "",
      "website": "",
      "working_hours": "",
      "description": "",
      "tags": ""
    },
    {
      "cat": "restaurants",
      "name": "Hotel El Gezira",
      "lat": 25.7050771,
      "lng": 32.632831,
      "address": "",
      "city": "",
      "phone": "",
      "website": "",
      "working_hours": "",
      "description": "",
      "tags": ""
    },
    {
      "cat": "restaurants",
      "name": "Mamma Mia",
      "lat": 25.6885504,
      "lng": 32.6344419,
      "address": "",
      "city": "",
      "phone": "",
      "website": "",
      "working_hours": "",
      "description": "",
      "tags": "italian;pizza"
    },
    {
      "cat": "restaurants",
      "name": "Ramses Restaurant & Cafe",
      "lat": 25.7180993,
      "lng": 32.6022361,
      "address": "",
      "city": "",
      "phone": "+21028707245",
      "website": "",
      "working_hours": "Mo-Su 07:00-17:00",
      "description": "",
      "tags": ""
    },
    {
      "cat": "restaurants",
      "name": "Nile Rose Café Restaurant",
      "lat": 25.6994094,
      "lng": 32.6317498,
      "address": "",
      "city": "",
      "phone": "",
      "website": "",
      "working_hours": "",
      "description": "",
      "tags": ""
    },
    {
      "cat": "restaurants",
      "name": "Wannas Art Cafe Vegetarian Restaurant",
      "lat": 25.7046764,
      "lng": 32.6325544,
      "address": "",
      "city": "",
      "phone": "",
      "website": "",
      "working_hours": "",
      "description": "",
      "tags": ""
    },
    {
      "cat": "restaurants",
      "name": "Nile Freedom",
      "lat": 25.6999952,
      "lng": 32.631807,
      "address": "",
      "city": "",
      "phone": "",
      "website": "",
      "working_hours": "",
      "description": "",
      "tags": "egyptian"
    },
    {
      "cat": "restaurants",
      "name": "Rustic House",
      "lat": 25.6961937,
      "lng": 32.6288426,
      "address": "",
      "city": "",
      "phone": "",
      "website": "",
      "working_hours": "",
      "description": "",
      "tags": "arab"
    },
    {
      "cat": "restaurants",
      "name": "Mamlouk Tagine",
      "lat": 25.7086339,
      "lng": 32.6324282,
      "address": "",
      "city": "",
      "phone": "",
      "website": "",
      "working_hours": "",
      "description": "",
      "tags": ""
    },
    {
      "cat": "restaurants",
      "name": "Hekaya Restaurant",
      "lat": 25.7060233,
      "lng": 32.6330468,
      "address": "",
      "city": "",
      "phone": "",
      "website": "",
      "working_hours": "",
      "description": "",
      "tags": ""
    },
    {
      "cat": "restaurants",
      "name": "Temple View",
      "lat": 25.7015038,
      "lng": 32.6329068,
      "address": "",
      "city": "",
      "phone": "",
      "website": "",
      "working_hours": "",
      "description": "",
      "tags": ""
    },
    {
      "cat": "restaurants",
      "name": "Two Stories",
      "lat": 25.7013473,
      "lng": 32.6328215,
      "address": "",
      "city": "",
      "phone": "",
      "website": "",
      "working_hours": "",
      "description": "",
      "tags": "chinese"
    },
    {
      "cat": "restaurants",
      "name": "Mystic Pizza",
      "lat": 25.701311,
      "lng": 32.6328062,
      "address": "",
      "city": "",
      "phone": "",
      "website": "",
      "working_hours": "",
      "description": "",
      "tags": ""
    },
    {
      "cat": "restaurants",
      "name": "Al Hassan",
      "lat": 25.7052864,
      "lng": 32.6332767,
      "address": "",
      "city": "",
      "phone": "",
      "website": "",
      "working_hours": "",
      "description": "",
      "tags": ""
    },
    {
      "cat": "restaurants",
      "name": "Nile View",
      "lat": 25.7053901,
      "lng": 32.6335703,
      "address": "",
      "city": "",
      "phone": "",
      "website": "",
      "working_hours": "",
      "description": "",
      "tags": ""
    },
    {
      "cat": "restaurants",
      "name": "Bil Hana Wa Shifa",
      "lat": 25.7051797,
      "lng": 32.6333544,
      "address": "",
      "city": "",
      "phone": "",
      "website": "",
      "working_hours": "",
      "description": "",
      "tags": ""
    },
    {
      "cat": "restaurants",
      "name": "Nile Panorama",
      "lat": 25.7100475,
      "lng": 32.6393301,
      "address": "",
      "city": "",
      "phone": "",
      "website": "",
      "working_hours": "",
      "description": "",
      "tags": ""
    },
    {
      "cat": "restaurants",
      "name": "Nubian House",
      "lat": 25.6984302,
      "lng": 32.6307716,
      "address": "",
      "city": "",
      "phone": "",
      "website": "",
      "working_hours": "",
      "description": "",
      "tags": ""
    },
    {
      "cat": "restaurants",
      "name": "Tut Ankh Amoun",
      "lat": 25.7027158,
      "lng": 32.6337101,
      "address": "",
      "city": "",
      "phone": "",
      "website": "",
      "working_hours": "",
      "description": "",
      "tags": ""
    },
    {
      "cat": "restaurants",
      "name": "El Waha",
      "lat": 25.7039702,
      "lng": 32.633435,
      "address": "",
      "city": "",
      "phone": "",
      "website": "",
      "working_hours": "",
      "description": "",
      "tags": ""
    },
    {
      "cat": "restaurants",
      "name": "Abu Aya",
      "lat": 25.6973613,
      "lng": 32.6292839,
      "address": "",
      "city": "",
      "phone": "",
      "website": "",
      "working_hours": "",
      "description": "",
      "tags": ""
    },
    {
      "cat": "restaurants",
      "name": "Little Nile Beach",
      "lat": 25.6987359,
      "lng": 32.6309414,
      "address": "",
      "city": "",
      "phone": "",
      "website": "",
      "working_hours": "",
      "description": "",
      "tags": ""
    },
    {
      "cat": "restaurants",
      "name": "shawarma",
      "lat": 26.161572,
      "lng": 32.727525,
      "address": "",
      "city": "",
      "phone": "",
      "website": "",
      "working_hours": "",
      "description": "",
      "tags": ""
    },
    {
      "cat": "restaurants",
      "name": "chicken",
      "lat": 26.1579645,
      "lng": 32.7218098,
      "address": "",
      "city": "",
      "phone": "",
      "website": "",
      "working_hours": "",
      "description": "",
      "tags": ""
    },
    {
      "cat": "restaurants",
      "name": "pizza",
      "lat": 26.1585429,
      "lng": 32.7149611,
      "address": "",
      "city": "",
      "phone": "",
      "website": "",
      "working_hours": "",
      "description": "",
      "tags": ""
    },
    {
      "cat": "restaurants",
      "name": "pasta",
      "lat": 26.1584341,
      "lng": 32.7147104,
      "address": "",
      "city": "",
      "phone": "",
      "website": "",
      "working_hours": "",
      "description": "",
      "tags": ""
    },
    {
      "cat": "restaurants",
      "name": "Rezo",
      "lat": 26.1615269,
      "lng": 32.7264013,
      "address": "",
      "city": "",
      "phone": "",
      "website": "",
      "working_hours": "",
      "description": "",
      "tags": ""
    },
    {
      "cat": "restaurants",
      "name": "Potatoes",
      "lat": 26.0466573,
      "lng": 32.2446411,
      "address": "",
      "city": "",
      "phone": "",
      "website": "",
      "working_hours": "",
      "description": "",
      "tags": ""
    },
    {
      "cat": "restaurants",
      "name": "Marasi",
      "lat": 26.0481912,
      "lng": 32.2458104,
      "address": "",
      "city": "",
      "phone": "",
      "website": "",
      "working_hours": "",
      "description": "",
      "tags": ""
    },
    {
      "cat": "restaurants",
      "name": "Kher Zaman",
      "lat": 26.0497326,
      "lng": 32.2415209,
      "address": "",
      "city": "",
      "phone": "",
      "website": "",
      "working_hours": "",
      "description": "",
      "tags": ""
    },
    {
      "cat": "restaurants",
      "name": "Abo Tarek",
      "lat": 26.0465391,
      "lng": 32.2448466,
      "address": "",
      "city": "",
      "phone": "",
      "website": "",
      "working_hours": "",
      "description": "",
      "tags": ""
    },
    {
      "cat": "restaurants",
      "name": "Le Gourmet",
      "lat": 25.7018382,
      "lng": 32.6318434,
      "address": "",
      "city": "",
      "phone": "",
      "website": "",
      "working_hours": "",
      "description": "",
      "tags": ""
    },
    {
      "cat": "restaurants",
      "name": "Villa Sunrise Guest House",
      "lat": 25.701982,
      "lng": 32.6332436,
      "address": "",
      "city": "",
      "phone": "",
      "website": "",
      "working_hours": "",
      "description": "",
      "tags": ""
    },
    {
      "cat": "restaurants",
      "name": "West Bank Nile Palace",
      "lat": 25.7018243,
      "lng": 32.6330784,
      "address": "",
      "city": "",
      "phone": "",
      "website": "",
      "working_hours": "",
      "description": "",
      "tags": ""
    },
    {
      "cat": "restaurants",
      "name": "Rose of Al-Jorf",
      "lat": 25.6930668,
      "lng": 32.6221601,
      "address": "",
      "city": "",
      "phone": "",
      "website": "",
      "working_hours": "",
      "description": "",
      "tags": ""
    },
    {
      "cat": "restaurants",
      "name": "Paris Restaurant",
      "lat": 25.7182511,
      "lng": 32.614708,
      "address": "",
      "city": "",
      "phone": "+20 10 96839557",
      "website": "",
      "working_hours": "",
      "description": "",
      "tags": ""
    },
    {
      "cat": "restaurants",
      "name": "Boska Qena",
      "lat": 26.1457588,
      "lng": 32.7005494,
      "address": "",
      "city": "",
      "phone": "",
      "website": "",
      "working_hours": "",
      "description": "",
      "tags": "arab"
    },
    {
      "cat": "restaurants",
      "name": "Al Mina",
      "lat": 25.7099505,
      "lng": 32.6389164,
      "address": "",
      "city": "",
      "phone": "",
      "website": "",
      "working_hours": "",
      "description": "",
      "tags": ""
    },
    {
      "cat": "restaurants",
      "name": "Sunset",
      "lat": 25.7020095,
      "lng": 32.6311802,
      "address": "",
      "city": "",
      "phone": "",
      "website": "",
      "working_hours": "",
      "description": "",
      "tags": ""
    },
    {
      "cat": "restaurants",
      "name": "Assad younan",
      "lat": 25.7007188,
      "lng": 32.6490672,
      "address": "",
      "city": "",
      "phone": "",
      "website": "",
      "working_hours": "",
      "description": "",
      "tags": "italian"
    },
    {
      "cat": "restaurants",
      "name": "El Karnak",
      "lat": 25.7217086,
      "lng": 32.6537935,
      "address": "",
      "city": "",
      "phone": "",
      "website": "",
      "working_hours": "",
      "description": "",
      "tags": ""
    },
    {
      "cat": "restaurants",
      "name": "Olives",
      "lat": 25.7297564,
      "lng": 32.6566663,
      "address": "",
      "city": "",
      "phone": "",
      "website": "",
      "working_hours": "",
      "description": "",
      "tags": ""
    }
  ],
  "cafes": [
    {
      "cat": "cafes",
      "name": "Lotus",
      "lat": 25.691054,
      "lng": 32.635064,
      "address": "",
      "city": "",
      "phone": "",
      "website": "",
      "working_hours": "",
      "description": "",
      "tags": ""
    },
    {
      "cat": "cafes",
      "name": "كافى شوب آل البيت",
      "lat": 25.7016527,
      "lng": 32.6431414,
      "address": "Sh. Abd el-Hameed Taha",
      "city": "Luxor",
      "phone": "+20 101 291 9989",
      "website": "https://www.aalalbayt.com",
      "working_hours": "24/7",
      "description": "",
      "tags": "coffee_shop"
    },
    {
      "cat": "cafes",
      "name": "Ali Baba Cafe",
      "lat": 25.6981936,
      "lng": 32.6395917,
      "address": "",
      "city": "",
      "phone": "",
      "website": "",
      "working_hours": "",
      "description": "",
      "tags": ""
    },
    {
      "cat": "cafes",
      "name": "Café Latte",
      "lat": 25.6985239,
      "lng": 32.6400151,
      "address": "",
      "city": "",
      "phone": "",
      "website": "",
      "working_hours": "",
      "description": "",
      "tags": "ice_cream;cake;tea;coffee_shop"
    },
    {
      "cat": "cafes",
      "name": "Abo Eltaher",
      "lat": 25.6958799,
      "lng": 32.6417511,
      "address": "",
      "city": "",
      "phone": "",
      "website": "",
      "working_hours": "",
      "description": "",
      "tags": ""
    },
    {
      "cat": "cafes",
      "name": "Desert Rose",
      "lat": 25.7172119,
      "lng": 32.6013218,
      "address": "Habou",
      "city": "",
      "phone": "",
      "website": "",
      "working_hours": "Mo-Su 08:00-10:00",
      "description": "",
      "tags": ""
    },
    {
      "cat": "cafes",
      "name": "جزيرة الموز",
      "lat": 25.6860251,
      "lng": 32.6218399,
      "address": "",
      "city": "",
      "phone": "",
      "website": "",
      "working_hours": "",
      "description": "",
      "tags": "soft_drinks"
    },
    {
      "cat": "cafes",
      "name": "Moaaz café",
      "lat": 25.7150704,
      "lng": 32.6493255,
      "address": "",
      "city": "",
      "phone": "",
      "website": "",
      "working_hours": "",
      "description": "",
      "tags": ""
    },
    {
      "cat": "cafes",
      "name": "Shababik Luxor Cafe -كافيه شبابيك الأقصر",
      "lat": 25.6867032,
      "lng": 32.6349349,
      "address": "Street 3",
      "city": "Luxor",
      "phone": "+20 1010465766",
      "website": "https://www.facebook.com/yasserphx",
      "working_hours": "Mo-Su 07:00-23:00",
      "description": "Modern café in the center of Luxor on a quiet side street off El-Madina Street Front Shaab Club. The owner has been an experienced German-speaking tour guide for 25 years and organizes travel tours for various languages.",
      "tags": "coffee_shop;juices;smoothies"
    },
    {
      "cat": "cafes",
      "name": "badia Café",
      "lat": 25.6870891,
      "lng": 32.6299487,
      "address": "",
      "city": "",
      "phone": "",
      "website": "",
      "working_hours": "",
      "description": "",
      "tags": ""
    },
    {
      "cat": "cafes",
      "name": "Juice Bar",
      "lat": 25.6981257,
      "lng": 32.6422509,
      "address": "",
      "city": "",
      "phone": "",
      "website": "",
      "working_hours": "",
      "description": "",
      "tags": ""
    },
    {
      "cat": "cafes",
      "name": "El Sayeda Zainab Restaurant",
      "lat": 25.7092195,
      "lng": 32.6312569,
      "address": "طريق القرنة",
      "city": "",
      "phone": "+20 100 134 8902",
      "website": "",
      "working_hours": "",
      "description": "",
      "tags": "regional"
    },
    {
      "cat": "cafes",
      "name": "كافتيريا المحطة",
      "lat": 25.6965167,
      "lng": 32.6447497,
      "address": "",
      "city": "",
      "phone": "",
      "website": "",
      "working_hours": "",
      "description": "",
      "tags": "coffee_shop"
    },
    {
      "cat": "cafes",
      "name": "Moon Cafe",
      "lat": 25.7035565,
      "lng": 32.6329136,
      "address": "",
      "city": "",
      "phone": "",
      "website": "",
      "working_hours": "",
      "description": "",
      "tags": ""
    },
    {
      "cat": "cafes",
      "name": "رمالة",
      "lat": 25.6878977,
      "lng": 32.6350381,
      "address": "",
      "city": "",
      "phone": "",
      "website": "",
      "working_hours": "Mo-Su 09:00-01:00",
      "description": "",
      "tags": "coffee_shop"
    },
    {
      "cat": "cafes",
      "name": "كافيه افندينا",
      "lat": 25.8980508,
      "lng": 32.7202854,
      "address": "",
      "city": "",
      "phone": "",
      "website": "",
      "working_hours": "",
      "description": "",
      "tags": ""
    },
    {
      "cat": "cafes",
      "name": "Shisha",
      "lat": 25.7050116,
      "lng": 32.6334533,
      "address": "",
      "city": "",
      "phone": "",
      "website": "",
      "working_hours": "",
      "description": "",
      "tags": ""
    },
    {
      "cat": "cafes",
      "name": "Al Moez",
      "lat": 25.7053268,
      "lng": 32.633258,
      "address": "",
      "city": "",
      "phone": "",
      "website": "",
      "working_hours": "",
      "description": "",
      "tags": ""
    },
    {
      "cat": "cafes",
      "name": "coffee, shisha, breakfast",
      "lat": 26.1508962,
      "lng": 32.7098147,
      "address": "",
      "city": "",
      "phone": "",
      "website": "",
      "working_hours": "",
      "description": "",
      "tags": ""
    },
    {
      "cat": "cafes",
      "name": "shisha",
      "lat": 26.1580359,
      "lng": 32.7220176,
      "address": "",
      "city": "",
      "phone": "",
      "website": "",
      "working_hours": "",
      "description": "",
      "tags": ""
    },
    {
      "cat": "cafes",
      "name": "Venessia - rooftop",
      "lat": 26.1593638,
      "lng": 32.7224883,
      "address": "",
      "city": "",
      "phone": "",
      "website": "",
      "working_hours": "",
      "description": "",
      "tags": ""
    },
    {
      "cat": "cafes",
      "name": "tea",
      "lat": 26.0519543,
      "lng": 32.24414,
      "address": "",
      "city": "",
      "phone": "",
      "website": "",
      "working_hours": "",
      "description": "",
      "tags": ""
    },
    {
      "cat": "cafes",
      "name": "Jamba Juice",
      "lat": 25.703025,
      "lng": 32.6338275,
      "address": "",
      "city": "",
      "phone": "",
      "website": "",
      "working_hours": "",
      "description": "",
      "tags": ""
    },
    {
      "cat": "cafes",
      "name": "Arabia Cafeteria",
      "lat": 25.6818977,
      "lng": 32.635722,
      "address": "",
      "city": "",
      "phone": "",
      "website": "",
      "working_hours": "",
      "description": "",
      "tags": ""
    },
    {
      "cat": "cafes",
      "name": "Karnak Stuff",
      "lat": 25.7185463,
      "lng": 32.6523407,
      "address": "",
      "city": "",
      "phone": "",
      "website": "",
      "working_hours": "",
      "description": "",
      "tags": ""
    },
    {
      "cat": "cafes",
      "name": "Ghoreya Cafe",
      "lat": 25.7150666,
      "lng": 32.6493268,
      "address": "",
      "city": "",
      "phone": "",
      "website": "",
      "working_hours": "",
      "description": "",
      "tags": ""
    },
    {
      "cat": "cafes",
      "name": "Genesis",
      "lat": 25.7286603,
      "lng": 32.6584963,
      "address": "",
      "city": "",
      "phone": "",
      "website": "",
      "working_hours": "",
      "description": "",
      "tags": ""
    }
  ],
  "tourism": [
    {
      "cat": "tourism",
      "name": "TT69 (Menna)",
      "lat": 25.7321656,
      "lng": 32.6089693,
      "address": "",
      "city": "",
      "phone": "",
      "website": "",
      "working_hours": "",
      "description": "",
      "tags": ""
    },
    {
      "cat": "tourism",
      "name": "معبد تحتمس الثالث",
      "lat": 25.7379286,
      "lng": 32.6059799,
      "address": "",
      "city": "",
      "phone": "",
      "website": "",
      "working_hours": "",
      "description": "",
      "tags": ""
    },
    {
      "cat": "tourism",
      "name": "معبد حتشبسوت",
      "lat": 25.7383391,
      "lng": 32.6064411,
      "address": "",
      "city": "",
      "phone": "",
      "website": "",
      "working_hours": "",
      "description": "",
      "tags": ""
    },
    {
      "cat": "tourism",
      "name": "معبد منتوحتب الثاني",
      "lat": 25.7373907,
      "lng": 32.6062233,
      "address": "",
      "city": "",
      "phone": "",
      "website": "",
      "working_hours": "",
      "description": "",
      "tags": ""
    },
    {
      "cat": "tourism",
      "name": "TT52 (Nakht)",
      "lat": 25.7326738,
      "lng": 32.6107375,
      "address": "",
      "city": "",
      "phone": "",
      "website": "",
      "working_hours": "",
      "description": "",
      "tags": ""
    },
    {
      "cat": "tourism",
      "name": "مجلس الصلح",
      "lat": 25.4978262,
      "lng": 32.4786273,
      "address": "",
      "city": "",
      "phone": "",
      "website": "",
      "working_hours": "",
      "description": "",
      "tags": ""
    },
    {
      "cat": "tourism",
      "name": "ديوان محافظة الأقصر",
      "lat": 25.704346,
      "lng": 32.6417174,
      "address": "",
      "city": "",
      "phone": "",
      "website": "",
      "working_hours": "",
      "description": "",
      "tags": ""
    },
    {
      "cat": "tourism",
      "name": "موردة سطيح",
      "lat": 25.4651782,
      "lng": 32.4908586,
      "address": "",
      "city": "",
      "phone": "",
      "website": "",
      "working_hours": "",
      "description": "",
      "tags": ""
    },
    {
      "cat": "tourism",
      "name": "المعلة",
      "lat": 25.4772483,
      "lng": 32.5235538,
      "address": "",
      "city": "",
      "phone": "",
      "website": "",
      "working_hours": "",
      "description": "",
      "tags": ""
    },
    {
      "cat": "tourism",
      "name": "الإزالة التي لم تتم",
      "lat": 25.5130878,
      "lng": 32.497877,
      "address": "",
      "city": "",
      "phone": "",
      "website": "",
      "working_hours": "",
      "description": "",
      "tags": ""
    },
    {
      "cat": "tourism",
      "name": "نجع أبو سعيد",
      "lat": 25.4472111,
      "lng": 32.544657,
      "address": "",
      "city": "",
      "phone": "",
      "website": "",
      "working_hours": "",
      "description": "",
      "tags": ""
    },
    {
      "cat": "tourism",
      "name": "مدرسة الغريرة الابتدائية",
      "lat": 25.5031368,
      "lng": 32.4697669,
      "address": "",
      "city": "",
      "phone": "",
      "website": "",
      "working_hours": "",
      "description": "",
      "tags": ""
    },
    {
      "cat": "tourism",
      "name": "محطة المحولات الجديدة",
      "lat": 25.5022874,
      "lng": 32.4607878,
      "address": "",
      "city": "",
      "phone": "",
      "website": "",
      "working_hours": "",
      "description": "",
      "tags": ""
    },
    {
      "cat": "tourism",
      "name": "مدخل الغريرة",
      "lat": 25.5026295,
      "lng": 32.4806887,
      "address": "",
      "city": "",
      "phone": "",
      "website": "",
      "working_hours": "",
      "description": "",
      "tags": ""
    },
    {
      "cat": "tourism",
      "name": "قاعة المؤتمرات",
      "lat": 25.7130179,
      "lng": 32.6475502,
      "address": "",
      "city": "",
      "phone": "",
      "website": "",
      "working_hours": "",
      "description": "",
      "tags": ""
    },
    {
      "cat": "tourism",
      "name": "آثار الجبلين",
      "lat": 25.4860283,
      "lng": 32.4938552,
      "address": "",
      "city": "",
      "phone": "",
      "website": "",
      "working_hours": "",
      "description": "",
      "tags": ""
    },
    {
      "cat": "tourism",
      "name": "مدخل المحاميد",
      "lat": 25.5339168,
      "lng": 32.4664437,
      "address": "",
      "city": "",
      "phone": "",
      "website": "",
      "working_hours": "",
      "description": "",
      "tags": ""
    },
    {
      "cat": "tourism",
      "name": "خط كهرباء",
      "lat": 25.4396176,
      "lng": 32.4169893,
      "address": "",
      "city": "",
      "phone": "",
      "website": "",
      "working_hours": "",
      "description": "",
      "tags": ""
    },
    {
      "cat": "tourism",
      "name": "جمعية نساء الجنوب",
      "lat": 25.4307962,
      "lng": 32.5262344,
      "address": "",
      "city": "",
      "phone": "",
      "website": "",
      "working_hours": "",
      "description": "",
      "tags": ""
    },
    {
      "cat": "tourism",
      "name": "مزلقان نجع أبو سعيد",
      "lat": 25.4455614,
      "lng": 32.5435635,
      "address": "",
      "city": "",
      "phone": "",
      "website": "",
      "working_hours": "",
      "description": "",
      "tags": ""
    },
    {
      "cat": "tourism",
      "name": "بداية مخر ابو سعيد",
      "lat": 25.447994,
      "lng": 32.5452357,
      "address": "",
      "city": "",
      "phone": "",
      "website": "",
      "working_hours": "",
      "description": "",
      "tags": ""
    },
    {
      "cat": "tourism",
      "name": "مخر سيل",
      "lat": 25.5263674,
      "lng": 32.4921778,
      "address": "",
      "city": "",
      "phone": "",
      "website": "",
      "working_hours": "",
      "description": "",
      "tags": ""
    },
    {
      "cat": "tourism",
      "name": "أولاد رجب",
      "lat": 25.6939455,
      "lng": 32.6400222,
      "address": "",
      "city": "",
      "phone": "",
      "website": "",
      "working_hours": "",
      "description": "",
      "tags": ""
    },
    {
      "cat": "tourism",
      "name": "ماسورة نجع ابو سعيد",
      "lat": 25.4457325,
      "lng": 32.5435566,
      "address": "",
      "city": "",
      "phone": "",
      "website": "",
      "working_hours": "",
      "description": "",
      "tags": ""
    },
    {
      "cat": "tourism",
      "name": "مخر سيل الدبابية",
      "lat": 25.4953674,
      "lng": 32.514413,
      "address": "",
      "city": "",
      "phone": "",
      "website": "",
      "working_hours": "",
      "description": "",
      "tags": ""
    },
    {
      "cat": "tourism",
      "name": "انحناء المصرف المردوم",
      "lat": 25.4947036,
      "lng": 32.5131346,
      "address": "",
      "city": "",
      "phone": "",
      "website": "",
      "working_hours": "",
      "description": "",
      "tags": ""
    },
    {
      "cat": "tourism",
      "name": "سحارة مخر الحميدات",
      "lat": 25.4069624,
      "lng": 32.5659437,
      "address": "",
      "city": "",
      "phone": "",
      "website": "",
      "working_hours": "",
      "description": "",
      "tags": ""
    },
    {
      "cat": "tourism",
      "name": "عزية الأمير",
      "lat": 25.5137463,
      "lng": 32.505438,
      "address": "",
      "city": "",
      "phone": "",
      "website": "",
      "working_hours": "",
      "description": "",
      "tags": ""
    },
    {
      "cat": "tourism",
      "name": "مشكلة الكنيسة",
      "lat": 25.4951527,
      "lng": 32.4735643,
      "address": "",
      "city": "",
      "phone": "",
      "website": "",
      "working_hours": "",
      "description": "",
      "tags": ""
    },
    {
      "cat": "tourism",
      "name": "Mummification Museum",
      "lat": 25.7025345,
      "lng": 32.6398801,
      "address": "",
      "city": "",
      "phone": "",
      "website": "",
      "working_hours": "Mo-Su 09:00-14:00,17:00-21:00",
      "description": "",
      "tags": ""
    },
    {
      "cat": "tourism",
      "name": "local ferry to West Bank",
      "lat": 25.7014436,
      "lng": 32.6385794,
      "address": "",
      "city": "",
      "phone": "",
      "website": "",
      "working_hours": "",
      "description": "",
      "tags": ""
    },
    {
      "cat": "tourism",
      "name": "Nūn Art Gallery",
      "lat": 25.7039153,
      "lng": 32.6328437,
      "address": "Ramla, Luxor west bank",
      "city": "",
      "phone": "",
      "website": "https://www.nun-art-gallery.com/",
      "working_hours": "Mo-Su 10:00-22:00",
      "description": "",
      "tags": ""
    },
    {
      "cat": "tourism",
      "name": "Abo Eish Alabaster Factory",
      "lat": 25.733132,
      "lng": 32.6233157,
      "address": "",
      "city": "",
      "phone": "+20 1091769090",
      "website": "",
      "working_hours": "",
      "description": "",
      "tags": ""
    },
    {
      "cat": "tourism",
      "name": "Art from People to People Foundation",
      "lat": 25.7149153,
      "lng": 32.6246003,
      "address": "",
      "city": "",
      "phone": "",
      "website": "",
      "working_hours": "",
      "description": "",
      "tags": ""
    },
    {
      "cat": "tourism",
      "name": "T178 Tomb of Neferronpet",
      "lat": 25.7323707,
      "lng": 32.6120936,
      "address": "",
      "city": "",
      "phone": "",
      "website": "",
      "working_hours": "",
      "description": "",
      "tags": ""
    },
    {
      "cat": "tourism",
      "name": "Al Khokha",
      "lat": 25.7324654,
      "lng": 32.6120624,
      "address": "",
      "city": "",
      "phone": "",
      "website": "",
      "working_hours": "",
      "description": "",
      "tags": ""
    },
    {
      "cat": "tourism",
      "name": "TT296 Tomb of Nefersekheru",
      "lat": 25.7325104,
      "lng": 32.6119684,
      "address": "",
      "city": "",
      "phone": "",
      "website": "",
      "working_hours": "",
      "description": "",
      "tags": ""
    },
    {
      "cat": "tourism",
      "name": "TT295 Tomb of Dhutmosi",
      "lat": 25.7325183,
      "lng": 32.6118587,
      "address": "",
      "city": "",
      "phone": "",
      "website": "",
      "working_hours": "",
      "description": "",
      "tags": ""
    },
    {
      "cat": "tourism",
      "name": "جزيرة الموز",
      "lat": 25.683452,
      "lng": 32.6228723,
      "address": "",
      "city": "",
      "phone": "",
      "website": "",
      "working_hours": "",
      "description": "",
      "tags": ""
    },
    {
      "cat": "tourism",
      "name": "Tailleurs de pierres",
      "lat": 25.7348314,
      "lng": 32.6212779,
      "address": "",
      "city": "",
      "phone": "",
      "website": "",
      "working_hours": "",
      "description": "",
      "tags": ""
    },
    {
      "cat": "tourism",
      "name": "Luxor Museum",
      "lat": 25.7076634,
      "lng": 32.644489,
      "address": "",
      "city": "",
      "phone": "",
      "website": "",
      "working_hours": "",
      "description": "",
      "tags": ""
    },
    {
      "cat": "tourism",
      "name": "Replica of Tut Ankh Amon Tomb",
      "lat": 25.7396139,
      "lng": 32.6278404,
      "address": "",
      "city": "",
      "phone": "",
      "website": "",
      "working_hours": "",
      "description": "",
      "tags": ""
    },
    {
      "cat": "tourism",
      "name": "رمسسيوم",
      "lat": 25.7279413,
      "lng": 32.6101924,
      "address": "",
      "city": "",
      "phone": "",
      "website": "",
      "working_hours": "",
      "description": "",
      "tags": ""
    },
    {
      "cat": "tourism",
      "name": "دير المدينة",
      "lat": 25.7283442,
      "lng": 32.6012912,
      "address": "",
      "city": "",
      "phone": "",
      "website": "",
      "working_hours": "",
      "description": "",
      "tags": ""
    },
    {
      "cat": "tourism",
      "name": "Mortuary Temple of Seti I",
      "lat": 25.7324392,
      "lng": 32.6285505,
      "address": "",
      "city": "",
      "phone": "",
      "website": "",
      "working_hours": "",
      "description": "",
      "tags": ""
    },
    {
      "cat": "tourism",
      "name": "مدينة هبو",
      "lat": 25.7197354,
      "lng": 32.6009841,
      "address": "",
      "city": "",
      "phone": "",
      "website": "",
      "working_hours": "",
      "description": "",
      "tags": ""
    },
    {
      "cat": "tourism",
      "name": "طريق الكباش",
      "lat": 25.7071476,
      "lng": 32.6472224,
      "address": "",
      "city": "",
      "phone": "",
      "website": "",
      "working_hours": "",
      "description": "",
      "tags": ""
    },
    {
      "cat": "tourism",
      "name": "معبد منتو",
      "lat": 25.7200935,
      "lng": 32.6606535,
      "address": "",
      "city": "",
      "phone": "",
      "website": "",
      "working_hours": "",
      "description": "",
      "tags": ""
    },
    {
      "cat": "tourism",
      "name": "وادي الملوك",
      "lat": 25.7402542,
      "lng": 32.6013928,
      "address": "",
      "city": "",
      "phone": "",
      "website": "",
      "working_hours": "",
      "description": "",
      "tags": ""
    },
    {
      "cat": "tourism",
      "name": "وادي الملكات",
      "lat": 25.7276834,
      "lng": 32.5928883,
      "address": "",
      "city": "",
      "phone": "",
      "website": "",
      "working_hours": "",
      "description": "",
      "tags": ""
    },
    {
      "cat": "tourism",
      "name": "عملاق ممنون",
      "lat": 25.7204993,
      "lng": 32.6104417,
      "address": "",
      "city": "",
      "phone": "",
      "website": "",
      "working_hours": "",
      "description": "",
      "tags": ""
    },
    {
      "cat": "tourism",
      "name": "معبد الأخمنو",
      "lat": 25.7177166,
      "lng": 32.6596655,
      "address": "",
      "city": "",
      "phone": "",
      "website": "",
      "working_hours": "",
      "description": "",
      "tags": ""
    },
    {
      "cat": "tourism",
      "name": "Contra Temple",
      "lat": 25.7176441,
      "lng": 32.6599603,
      "address": "",
      "city": "",
      "phone": "",
      "website": "",
      "working_hours": "",
      "description": "",
      "tags": ""
    },
    {
      "cat": "tourism",
      "name": "Rams avenue",
      "lat": 25.7193087,
      "lng": 32.6562992,
      "address": "",
      "city": "",
      "phone": "",
      "website": "",
      "working_hours": "",
      "description": "",
      "tags": ""
    },
    {
      "cat": "tourism",
      "name": "Avenue of Rams",
      "lat": 25.7192439,
      "lng": 32.6560499,
      "address": "",
      "city": "",
      "phone": "",
      "website": "",
      "working_hours": "",
      "description": "",
      "tags": ""
    },
    {
      "cat": "tourism",
      "name": "Botanical Gardens of Thutmose III",
      "lat": 25.717765,
      "lng": 32.6597725,
      "address": "",
      "city": "",
      "phone": "",
      "website": "",
      "working_hours": "",
      "description": "",
      "tags": ""
    },
    {
      "cat": "tourism",
      "name": "المتحف المفتوح",
      "lat": 25.7203119,
      "lng": 32.6574848,
      "address": "",
      "city": "",
      "phone": "",
      "website": "",
      "working_hours": "",
      "description": "",
      "tags": ""
    },
    {
      "cat": "tourism",
      "name": "Temple of Hathor",
      "lat": 26.1419452,
      "lng": 32.6702442,
      "address": "",
      "city": "",
      "phone": "",
      "website": "",
      "working_hours": "",
      "description": "",
      "tags": ""
    },
    {
      "cat": "tourism",
      "name": "Dendera Temple Complex",
      "lat": 26.143423,
      "lng": 32.6707451,
      "address": "",
      "city": "",
      "phone": "",
      "website": "",
      "working_hours": "Mo-Su 07:00-17:00",
      "description": "",
      "tags": ""
    },
    {
      "cat": "tourism",
      "name": "فناء الدولة الوسطى",
      "lat": 25.7179364,
      "lng": 32.6592192,
      "address": "",
      "city": "",
      "phone": "",
      "website": "",
      "working_hours": "",
      "description": "",
      "tags": ""
    },
    {
      "cat": "tourism",
      "name": "LX_NW_P005_CULTUREPALACE001",
      "lat": 25.7154402,
      "lng": 32.6223979,
      "address": "",
      "city": "",
      "phone": "",
      "website": "",
      "working_hours": "",
      "description": "",
      "tags": ""
    },
    {
      "cat": "tourism",
      "name": "LX_SW_P002_MUSEUM001",
      "lat": 25.7150522,
      "lng": 32.6220107,
      "address": "",
      "city": "",
      "phone": "",
      "website": "",
      "working_hours": "",
      "description": "",
      "tags": ""
    },
    {
      "cat": "tourism",
      "name": "Madinet Habu",
      "lat": 25.7174353,
      "lng": 32.6021249,
      "address": "",
      "city": "",
      "phone": "",
      "website": "",
      "working_hours": "",
      "description": "",
      "tags": ""
    },
    {
      "cat": "tourism",
      "name": "الدير البحري",
      "lat": 25.7373276,
      "lng": 32.6075212,
      "address": "",
      "city": "",
      "phone": "",
      "website": "",
      "working_hours": "",
      "description": "",
      "tags": ""
    },
    {
      "cat": "tourism",
      "name": "معبد الأقصر",
      "lat": 25.6995992,
      "lng": 32.6393621,
      "address": "",
      "city": "",
      "phone": "",
      "website": "",
      "working_hours": "",
      "description": "",
      "tags": ""
    },
    {
      "cat": "tourism",
      "name": "Temple",
      "lat": 25.7659285,
      "lng": 32.6088023,
      "address": "",
      "city": "",
      "phone": "",
      "website": "",
      "working_hours": "",
      "description": "",
      "tags": ""
    },
    {
      "cat": "tourism",
      "name": "منطاد",
      "lat": 25.7313732,
      "lng": 32.6187561,
      "address": "",
      "city": "",
      "phone": "",
      "website": "",
      "working_hours": "",
      "description": "",
      "tags": ""
    },
    {
      "cat": "tourism",
      "name": "Valley of the Three Pits",
      "lat": 25.7293821,
      "lng": 32.5964032,
      "address": "",
      "city": "",
      "phone": "",
      "website": "",
      "working_hours": "",
      "description": "",
      "tags": ""
    },
    {
      "cat": "tourism",
      "name": "Valley of Prince Ahmes",
      "lat": 25.7268672,
      "lng": 32.5937476,
      "address": "",
      "city": "",
      "phone": "",
      "website": "",
      "working_hours": "",
      "description": "",
      "tags": ""
    },
    {
      "cat": "tourism",
      "name": "Valley of the Rope",
      "lat": 25.7316679,
      "lng": 32.5951557,
      "address": "",
      "city": "",
      "phone": "",
      "website": "",
      "working_hours": "",
      "description": "",
      "tags": ""
    },
    {
      "cat": "tourism",
      "name": "West Valley",
      "lat": 25.7421889,
      "lng": 32.5947786,
      "address": "",
      "city": "",
      "phone": "",
      "website": "",
      "working_hours": "",
      "description": "",
      "tags": ""
    },
    {
      "cat": "tourism",
      "name": "معبد الكرنك",
      "lat": 25.7159312,
      "lng": 32.6579,
      "address": "",
      "city": "",
      "phone": "",
      "website": "",
      "working_hours": "",
      "description": "",
      "tags": ""
    }
  ],
  "hotels": [
    {
      "cat": "hotels",
      "name": "النخيل",
      "lat": 25.7048919,
      "lng": 32.6315569,
      "address": "",
      "city": "",
      "phone": "",
      "website": "",
      "working_hours": "",
      "description": "",
      "tags": ""
    },
    {
      "cat": "hotels",
      "name": "سوفيتيل قصر الشتاء",
      "lat": 25.6967999,
      "lng": 32.6369542,
      "address": "El Zinia Gebly Street",
      "city": "Luxor",
      "phone": "",
      "website": "",
      "working_hours": "",
      "description": "",
      "tags": ""
    },
    {
      "cat": "hotels",
      "name": "سوفيتيل - الكرنك",
      "lat": 25.7401425,
      "lng": 32.6637268,
      "address": "",
      "city": "",
      "phone": "",
      "website": "",
      "working_hours": "",
      "description": "",
      "tags": ""
    },
    {
      "cat": "hotels",
      "name": "إيبرأوتيل",
      "lat": 25.6951358,
      "lng": 32.6351118,
      "address": "",
      "city": "",
      "phone": "",
      "website": "",
      "working_hours": "",
      "description": "",
      "tags": ""
    },
    {
      "cat": "hotels",
      "name": "فندق الأقصر",
      "lat": 25.7051781,
      "lng": 32.6428495,
      "address": "",
      "city": "",
      "phone": "",
      "website": "",
      "working_hours": "",
      "description": "",
      "tags": ""
    },
    {
      "cat": "hotels",
      "name": "بيت القاضى",
      "lat": 25.9128561,
      "lng": 32.7647584,
      "address": "",
      "city": "",
      "phone": "",
      "website": "",
      "working_hours": "",
      "description": "",
      "tags": ""
    },
    {
      "cat": "hotels",
      "name": "El Fayrouz",
      "lat": 25.7054163,
      "lng": 32.6318026,
      "address": "",
      "city": "",
      "phone": "",
      "website": "",
      "working_hours": "",
      "description": "",
      "tags": ""
    },
    {
      "cat": "hotels",
      "name": "Amon Hotel",
      "lat": 25.706325,
      "lng": 32.631256,
      "address": "",
      "city": "",
      "phone": "",
      "website": "",
      "working_hours": "",
      "description": "",
      "tags": ""
    },
    {
      "cat": "hotels",
      "name": "Luxor",
      "lat": 25.711342,
      "lng": 32.6486585,
      "address": "",
      "city": "",
      "phone": "",
      "website": "",
      "working_hours": "",
      "description": "",
      "tags": ""
    },
    {
      "cat": "hotels",
      "name": "The Bob Marley House - Sherief Hotel",
      "lat": 25.6941484,
      "lng": 32.6385279,
      "address": "Badr St",
      "city": "Luxor",
      "phone": "+201004416536",
      "website": "",
      "working_hours": "",
      "description": "",
      "tags": ""
    },
    {
      "cat": "hotels",
      "name": "Bob Marley & Boomerang Hotel",
      "lat": 25.6940787,
      "lng": 32.6428519,
      "address": "",
      "city": "",
      "phone": "",
      "website": "",
      "working_hours": "",
      "description": "",
      "tags": ""
    },
    {
      "cat": "hotels",
      "name": "Venus Hotel",
      "lat": 25.7018448,
      "lng": 32.6434795,
      "address": "",
      "city": "",
      "phone": "",
      "website": "",
      "working_hours": "",
      "description": "",
      "tags": ""
    },
    {
      "cat": "hotels",
      "name": "Sonesta St George",
      "lat": 25.6883414,
      "lng": 32.6315307,
      "address": "",
      "city": "",
      "phone": "",
      "website": "",
      "working_hours": "",
      "description": "",
      "tags": ""
    },
    {
      "cat": "hotels",
      "name": "Pyrimisa Isis Hotel",
      "lat": 25.6869225,
      "lng": 32.6308444,
      "address": "",
      "city": "",
      "phone": "",
      "website": "",
      "working_hours": "",
      "description": "",
      "tags": ""
    },
    {
      "cat": "hotels",
      "name": "عبدالحكيم مدكور",
      "lat": 26.025701,
      "lng": 32.2630769,
      "address": "",
      "city": "",
      "phone": "",
      "website": "",
      "working_hours": "",
      "description": "",
      "tags": ""
    },
    {
      "cat": "hotels",
      "name": "Abu Simbel Hotel",
      "lat": 25.6959073,
      "lng": 32.6415974,
      "address": "",
      "city": "",
      "phone": "",
      "website": "",
      "working_hours": "",
      "description": "",
      "tags": ""
    },
    {
      "cat": "hotels",
      "name": "Nile Compound Hotel",
      "lat": 25.6918718,
      "lng": 32.6219518,
      "address": "",
      "city": "",
      "phone": "",
      "website": "",
      "working_hours": "",
      "description": "",
      "tags": ""
    },
    {
      "cat": "hotels",
      "name": "Oasis Hotel Luxor",
      "lat": 25.69517,
      "lng": 32.6423704,
      "address": "",
      "city": "",
      "phone": "+20 1224732255",
      "website": "",
      "working_hours": "",
      "description": "",
      "tags": ""
    },
    {
      "cat": "hotels",
      "name": "Amenophis Hotel",
      "lat": 25.7175066,
      "lng": 32.6025346,
      "address": "",
      "city": "",
      "phone": "",
      "website": "",
      "working_hours": "",
      "description": "",
      "tags": ""
    },
    {
      "cat": "hotels",
      "name": "Basma Hotel",
      "lat": 26.1481924,
      "lng": 32.7122924,
      "address": "",
      "city": "",
      "phone": "",
      "website": "",
      "working_hours": "",
      "description": "",
      "tags": ""
    },
    {
      "cat": "hotels",
      "name": "Grand hotel",
      "lat": 25.6941712,
      "lng": 32.6422043,
      "address": "",
      "city": "",
      "phone": "",
      "website": "",
      "working_hours": "",
      "description": "",
      "tags": ""
    },
    {
      "cat": "hotels",
      "name": "Beit Sabée",
      "lat": 25.7189744,
      "lng": 32.5984134,
      "address": "",
      "city": "",
      "phone": "",
      "website": "",
      "working_hours": "",
      "description": "",
      "tags": ""
    },
    {
      "cat": "hotels",
      "name": "Al Saraya Luxor Apartments",
      "lat": 25.7018365,
      "lng": 32.631418,
      "address": "",
      "city": "",
      "phone": "",
      "website": "",
      "working_hours": "",
      "description": "",
      "tags": ""
    },
    {
      "cat": "hotels",
      "name": "Nile Castle",
      "lat": 25.7002564,
      "lng": 32.6319928,
      "address": "",
      "city": "",
      "phone": "00201093077001",
      "website": "",
      "working_hours": "",
      "description": "",
      "tags": ""
    },
    {
      "cat": "hotels",
      "name": "Nile youth hostel",
      "lat": 25.7058728,
      "lng": 32.6344381,
      "address": "",
      "city": "",
      "phone": "01116666424",
      "website": "https://www.booking.com/",
      "working_hours": "",
      "description": "",
      "tags": ""
    },
    {
      "cat": "hotels",
      "name": "Salam",
      "lat": 25.6980291,
      "lng": 32.6428916,
      "address": "",
      "city": "",
      "phone": "",
      "website": "",
      "working_hours": "",
      "description": "",
      "tags": ""
    },
    {
      "cat": "hotels",
      "name": "New everest hôtel.",
      "lat": 25.6973895,
      "lng": 32.6428198,
      "address": "",
      "city": "",
      "phone": "",
      "website": "",
      "working_hours": "",
      "description": "",
      "tags": ""
    },
    {
      "cat": "hotels",
      "name": "Hôtel  Ramoza",
      "lat": 25.6973236,
      "lng": 32.6433917,
      "address": "",
      "city": "",
      "phone": "",
      "website": "",
      "working_hours": "",
      "description": "",
      "tags": ""
    },
    {
      "cat": "hotels",
      "name": "Hôtel  Radwane",
      "lat": 25.6963296,
      "lng": 32.6438571,
      "address": "",
      "city": "",
      "phone": "",
      "website": "",
      "working_hours": "",
      "description": "",
      "tags": ""
    },
    {
      "cat": "hotels",
      "name": "Nefertiti",
      "lat": 25.701643,
      "lng": 32.6422566,
      "address": "",
      "city": "",
      "phone": "",
      "website": "",
      "working_hours": "",
      "description": "",
      "tags": ""
    },
    {
      "cat": "hotels",
      "name": "JAMAICA HOTEL LUXOR",
      "lat": 25.6939138,
      "lng": 32.6430574,
      "address": "شارع الشهيد عبد الباري",
      "city": "luxor",
      "phone": "",
      "website": "",
      "working_hours": "",
      "description": "",
      "tags": ""
    },
    {
      "cat": "hotels",
      "name": "Pyramids luxor spa hotel",
      "lat": 25.7030403,
      "lng": 32.6331763,
      "address": "",
      "city": "",
      "phone": "",
      "website": "",
      "working_hours": "",
      "description": "",
      "tags": ""
    },
    {
      "cat": "hotels",
      "name": "Luxor Old Nile Hotel",
      "lat": 25.7026741,
      "lng": 32.6309048,
      "address": "",
      "city": "",
      "phone": "",
      "website": "",
      "working_hours": "",
      "description": "",
      "tags": ""
    },
    {
      "cat": "hotels",
      "name": "Green Oasis Villa",
      "lat": 25.7086796,
      "lng": 32.6271944,
      "address": "Gezerat Al Bairaat, West bank, Luxor",
      "city": "",
      "phone": "+201023100390",
      "website": "",
      "working_hours": "",
      "description": "",
      "tags": ""
    },
    {
      "cat": "hotels",
      "name": "Oasis Guest House",
      "lat": 25.7013548,
      "lng": 32.6320377,
      "address": "",
      "city": "",
      "phone": "",
      "website": "",
      "working_hours": "",
      "description": "",
      "tags": ""
    },
    {
      "cat": "hotels",
      "name": "Susanna",
      "lat": 25.7014468,
      "lng": 32.6420208,
      "address": "",
      "city": "",
      "phone": "",
      "website": "",
      "working_hours": "",
      "description": "",
      "tags": ""
    },
    {
      "cat": "hotels",
      "name": "El Mesala hotel",
      "lat": 25.7032651,
      "lng": 32.6335738,
      "address": "",
      "city": "",
      "phone": "+201062532186",
      "website": "",
      "working_hours": "24/7",
      "description": "",
      "tags": ""
    },
    {
      "cat": "hotels",
      "name": "Nile panorama hotel",
      "lat": 25.6976452,
      "lng": 32.6239958,
      "address": "",
      "city": "",
      "phone": "",
      "website": "",
      "working_hours": "",
      "description": "",
      "tags": ""
    },
    {
      "cat": "hotels",
      "name": "New Saint Cathrine",
      "lat": 25.7019127,
      "lng": 32.6446176,
      "address": "",
      "city": "",
      "phone": "+201029679079",
      "website": "",
      "working_hours": "",
      "description": "",
      "tags": ""
    },
    {
      "cat": "hotels",
      "name": "Hôtel El Gourna",
      "lat": 25.7233282,
      "lng": 32.6055919,
      "address": "",
      "city": "",
      "phone": "",
      "website": "",
      "working_hours": "",
      "description": "",
      "tags": ""
    },
    {
      "cat": "hotels",
      "name": "Kemet House",
      "lat": 25.7053349,
      "lng": 32.6329227,
      "address": "",
      "city": "",
      "phone": "",
      "website": "",
      "working_hours": "",
      "description": "",
      "tags": ""
    },
    {
      "cat": "hotels",
      "name": "Mama Africa Camp / Pharaoh's Rest Luxor",
      "lat": 25.7085825,
      "lng": 32.6323556,
      "address": "",
      "city": "",
      "phone": "",
      "website": "",
      "working_hours": "",
      "description": "",
      "tags": ""
    },
    {
      "cat": "hotels",
      "name": "Villa Sunrise",
      "lat": 25.7020048,
      "lng": 32.6332601,
      "address": "",
      "city": "",
      "phone": "",
      "website": "",
      "working_hours": "",
      "description": "",
      "tags": ""
    },
    {
      "cat": "hotels",
      "name": "Lovely Private Villa",
      "lat": 25.6979868,
      "lng": 32.6294232,
      "address": "",
      "city": "",
      "phone": "",
      "website": "",
      "working_hours": "",
      "description": "",
      "tags": ""
    },
    {
      "cat": "hotels",
      "name": "Ramses",
      "lat": 25.7051043,
      "lng": 32.6326947,
      "address": "",
      "city": "",
      "phone": "",
      "website": "",
      "working_hours": "",
      "description": "",
      "tags": ""
    },
    {
      "cat": "hotels",
      "name": "Full Moon House",
      "lat": 25.7004568,
      "lng": 32.6321602,
      "address": "",
      "city": "",
      "phone": "",
      "website": "",
      "working_hours": "",
      "description": "",
      "tags": ""
    },
    {
      "cat": "hotels",
      "name": "Magic Nile Secret Garden",
      "lat": 25.6984145,
      "lng": 32.6295035,
      "address": "",
      "city": "",
      "phone": "",
      "website": "",
      "working_hours": "",
      "description": "",
      "tags": ""
    },
    {
      "cat": "hotels",
      "name": "Luxor Guest House",
      "lat": 25.6989867,
      "lng": 32.6310923,
      "address": "",
      "city": "",
      "phone": "",
      "website": "",
      "working_hours": "",
      "description": "",
      "tags": ""
    },
    {
      "cat": "hotels",
      "name": "Dream Hotel",
      "lat": 26.1611979,
      "lng": 32.7258809,
      "address": "",
      "city": "",
      "phone": "",
      "website": "",
      "working_hours": "",
      "description": "",
      "tags": ""
    },
    {
      "cat": "hotels",
      "name": "Grand Hotel",
      "lat": 26.1606424,
      "lng": 32.7247858,
      "address": "",
      "city": "",
      "phone": "",
      "website": "",
      "working_hours": "",
      "description": "",
      "tags": ""
    },
    {
      "cat": "hotels",
      "name": "Makkah - no WiFi !",
      "lat": 26.1607663,
      "lng": 32.7250108,
      "address": "",
      "city": "",
      "phone": "",
      "website": "",
      "working_hours": "",
      "description": "",
      "tags": ""
    },
    {
      "cat": "hotels",
      "name": "El Yasmene",
      "lat": 26.1589486,
      "lng": 32.7226577,
      "address": "",
      "city": "",
      "phone": "",
      "website": "",
      "working_hours": "",
      "description": "",
      "tags": ""
    },
    {
      "cat": "hotels",
      "name": "Nile View Police Club",
      "lat": 26.0477683,
      "lng": 32.2460035,
      "address": "",
      "city": "",
      "phone": "",
      "website": "",
      "working_hours": "",
      "description": "",
      "tags": ""
    },
    {
      "cat": "hotels",
      "name": "Mr. Hostel",
      "lat": 25.6946127,
      "lng": 32.6414214,
      "address": "",
      "city": "",
      "phone": "+201061812899",
      "website": "https://mrhostel-luxor.com/",
      "working_hours": "",
      "description": "",
      "tags": ""
    },
    {
      "cat": "hotels",
      "name": "Villa Nile House Luxor",
      "lat": 25.7011359,
      "lng": 32.6317668,
      "address": "",
      "city": "",
      "phone": "",
      "website": "",
      "working_hours": "",
      "description": "",
      "tags": ""
    },
    {
      "cat": "hotels",
      "name": "Tasneem Palace",
      "lat": 25.7055812,
      "lng": 32.6301692,
      "address": "",
      "city": "",
      "phone": "",
      "website": "",
      "working_hours": "",
      "description": "",
      "tags": ""
    },
    {
      "cat": "hotels",
      "name": "Sofitel Winter Palace hotel",
      "lat": 25.6966159,
      "lng": 32.6370566,
      "address": "",
      "city": "",
      "phone": "",
      "website": "",
      "working_hours": "",
      "description": "",
      "tags": ""
    },
    {
      "cat": "hotels",
      "name": "Pavillon Winter Luxor",
      "lat": 25.6967711,
      "lng": 32.6386998,
      "address": "",
      "city": "",
      "phone": "",
      "website": "",
      "working_hours": "",
      "description": "",
      "tags": ""
    },
    {
      "cat": "hotels",
      "name": "Hotel Marsam",
      "lat": 25.7241865,
      "lng": 32.6065771,
      "address": "",
      "city": "",
      "phone": "",
      "website": "http://www.marsamluxor.com",
      "working_hours": "",
      "description": "",
      "tags": ""
    },
    {
      "cat": "hotels",
      "name": "فندق ماريتيم جولي",
      "lat": 25.66562,
      "lng": 32.6205781,
      "address": "",
      "city": "",
      "phone": "",
      "website": "https://www.jolieville-hotels.com/HotelSection.aspx?ItemID=120&ModuleID=2&HID=1",
      "working_hours": "",
      "description": "",
      "tags": ""
    },
    {
      "cat": "hotels",
      "name": "Club Med Hotel Bella Donna",
      "lat": 25.6901453,
      "lng": 32.6325499,
      "address": "",
      "city": "",
      "phone": "",
      "website": "",
      "working_hours": "",
      "description": "",
      "tags": ""
    },
    {
      "cat": "hotels",
      "name": "Steigenberger",
      "lat": 25.6875242,
      "lng": 32.6308525,
      "address": "",
      "city": "",
      "phone": "",
      "website": "",
      "working_hours": "",
      "description": "",
      "tags": ""
    },
    {
      "cat": "hotels",
      "name": "St.Joseph Hotel",
      "lat": 25.6888284,
      "lng": 32.632789,
      "address": "",
      "city": "",
      "phone": "",
      "website": "",
      "working_hours": "",
      "description": "",
      "tags": ""
    },
    {
      "cat": "hotels",
      "name": "Royal House Hotel",
      "lat": 25.6883459,
      "lng": 32.6349903,
      "address": "",
      "city": "",
      "phone": "",
      "website": "",
      "working_hours": "",
      "description": "",
      "tags": ""
    },
    {
      "cat": "hotels",
      "name": "Emilio Hotel Luxor",
      "lat": 25.6976113,
      "lng": 32.6399531,
      "address": "",
      "city": "",
      "phone": "",
      "website": "",
      "working_hours": "",
      "description": "",
      "tags": ""
    },
    {
      "cat": "hotels",
      "name": "Sofitel Winter Palace",
      "lat": 25.6962555,
      "lng": 32.6381147,
      "address": "",
      "city": "",
      "phone": "",
      "website": "",
      "working_hours": "",
      "description": "",
      "tags": ""
    },
    {
      "cat": "hotels",
      "name": "Tut hotel",
      "lat": 25.6946058,
      "lng": 32.6370874,
      "address": "",
      "city": "",
      "phone": "",
      "website": "",
      "working_hours": "",
      "description": "",
      "tags": ""
    },
    {
      "cat": "hotels",
      "name": "Pyramisa Hotel",
      "lat": 25.6867843,
      "lng": 32.6308052,
      "address": "",
      "city": "",
      "phone": "",
      "website": "",
      "working_hours": "",
      "description": "",
      "tags": ""
    },
    {
      "cat": "hotels",
      "name": "Flopater Hotel",
      "lat": 25.6900618,
      "lng": 32.6335115,
      "address": "",
      "city": "",
      "phone": "",
      "website": "",
      "working_hours": "",
      "description": "",
      "tags": ""
    },
    {
      "cat": "hotels",
      "name": "New Pola Hotel",
      "lat": 25.6910047,
      "lng": 32.633953,
      "address": "",
      "city": "",
      "phone": "",
      "website": "",
      "working_hours": "",
      "description": "",
      "tags": ""
    },
    {
      "cat": "hotels",
      "name": "St. Joseph Hotel",
      "lat": 25.6951737,
      "lng": 32.6356853,
      "address": "",
      "city": "",
      "phone": "",
      "website": "",
      "working_hours": "",
      "description": "",
      "tags": ""
    },
    {
      "cat": "hotels",
      "name": "Golden Palace",
      "lat": 25.6934173,
      "lng": 32.6397875,
      "address": "",
      "city": "",
      "phone": "",
      "website": "",
      "working_hours": "",
      "description": "",
      "tags": ""
    },
    {
      "cat": "hotels",
      "name": "golden palace",
      "lat": 25.6934329,
      "lng": 32.6394461,
      "address": "",
      "city": "",
      "phone": "",
      "website": "",
      "working_hours": "",
      "description": "",
      "tags": ""
    },
    {
      "cat": "hotels",
      "name": "everest luxor",
      "lat": 25.6941981,
      "lng": 32.6406323,
      "address": "",
      "city": "",
      "phone": "",
      "website": "",
      "working_hours": "",
      "description": "",
      "tags": ""
    },
    {
      "cat": "hotels",
      "name": "Eatabe Luxor Hotel",
      "lat": 25.704436,
      "lng": 32.6425892,
      "address": "",
      "city": "",
      "phone": "",
      "website": "",
      "working_hours": "",
      "description": "",
      "tags": ""
    },
    {
      "cat": "hotels",
      "name": "New Phillipe Luxor Hotel",
      "lat": 25.7055828,
      "lng": 32.6435733,
      "address": "",
      "city": "",
      "phone": "",
      "website": "",
      "working_hours": "",
      "description": "",
      "tags": ""
    },
    {
      "cat": "hotels",
      "name": "SUNNY LUXOR",
      "lat": 25.6995198,
      "lng": 32.6313763,
      "address": "Ramla, West Bank",
      "city": "Luxor",
      "phone": "",
      "website": "",
      "working_hours": "",
      "description": "",
      "tags": ""
    },
    {
      "cat": "hotels",
      "name": "El Mesala",
      "lat": 25.7032338,
      "lng": 32.6335432,
      "address": "",
      "city": "",
      "phone": "",
      "website": "",
      "working_hours": "",
      "description": "",
      "tags": ""
    },
    {
      "cat": "hotels",
      "name": "Hilton Luxor Resort & Spa",
      "lat": 25.73039,
      "lng": 32.6561931,
      "address": "",
      "city": "Luxor",
      "phone": "+20 95 2399999",
      "website": "https://www.hilton.com/en/hotels/luxhitw-hilton-luxor-resort-and-spa/",
      "working_hours": "",
      "description": "",
      "tags": ""
    },
    {
      "cat": "hotels",
      "name": "Gaddis Luxor Hotel Suites & Apartments",
      "lat": 25.6857542,
      "lng": 32.6312413,
      "address": "",
      "city": "",
      "phone": "",
      "website": "",
      "working_hours": "",
      "description": "",
      "tags": ""
    },
    {
      "cat": "hotels",
      "name": "Iberotel luxor",
      "lat": 25.6945897,
      "lng": 32.6350248,
      "address": "",
      "city": "",
      "phone": "",
      "website": "",
      "working_hours": "",
      "description": "",
      "tags": ""
    },
    {
      "cat": "hotels",
      "name": "moris hotel",
      "lat": 25.6914265,
      "lng": 32.6344922,
      "address": "",
      "city": "",
      "phone": "",
      "website": "",
      "working_hours": "",
      "description": "",
      "tags": ""
    },
    {
      "cat": "hotels",
      "name": "domina hotel",
      "lat": 25.702745,
      "lng": 32.6432807,
      "address": "",
      "city": "",
      "phone": "",
      "website": "",
      "working_hours": "",
      "description": "",
      "tags": ""
    },
    {
      "cat": "hotels",
      "name": "Luxor Armed Forces Hotel",
      "lat": 25.7139017,
      "lng": 32.6483425,
      "address": "",
      "city": "",
      "phone": "",
      "website": "",
      "working_hours": "",
      "description": "",
      "tags": ""
    },
    {
      "cat": "hotels",
      "name": "El Nakhil Hotel",
      "lat": 25.7048365,
      "lng": 32.6316204,
      "address": "",
      "city": "",
      "phone": "",
      "website": "",
      "working_hours": "",
      "description": "",
      "tags": ""
    },
    {
      "cat": "hotels",
      "name": "Nile Valley Hotel",
      "lat": 25.7042922,
      "lng": 32.6336316,
      "address": "",
      "city": "",
      "phone": "",
      "website": "",
      "working_hours": "",
      "description": "",
      "tags": ""
    },
    {
      "cat": "hotels",
      "name": "Gezira Garden Hotel",
      "lat": 25.7026267,
      "lng": 32.6324594,
      "address": "",
      "city": "",
      "phone": "",
      "website": "",
      "working_hours": "",
      "description": "",
      "tags": ""
    },
    {
      "cat": "hotels",
      "name": "Gold Ibis Hotel",
      "lat": 25.7024037,
      "lng": 32.6323274,
      "address": "",
      "city": "",
      "phone": "",
      "website": "",
      "working_hours": "",
      "description": "",
      "tags": ""
    },
    {
      "cat": "hotels",
      "name": "Karnak",
      "lat": 25.729467,
      "lng": 32.6594288,
      "address": "",
      "city": "",
      "phone": "",
      "website": "",
      "working_hours": "",
      "description": "",
      "tags": ""
    },
    {
      "cat": "hotels",
      "name": "Sofitel Karnak Luxor",
      "lat": 25.7406154,
      "lng": 32.6622804,
      "address": "",
      "city": "",
      "phone": "",
      "website": "",
      "working_hours": "",
      "description": "",
      "tags": ""
    },
    {
      "cat": "hotels",
      "name": "New Memnon Hotel",
      "lat": 25.7187259,
      "lng": 32.6125604,
      "address": "",
      "city": "",
      "phone": "",
      "website": "",
      "working_hours": "",
      "description": "",
      "tags": ""
    },
    {
      "cat": "hotels",
      "name": "Hotel Central",
      "lat": 26.0284999,
      "lng": 32.2573767,
      "address": "",
      "city": "",
      "phone": "",
      "website": "",
      "working_hours": "",
      "description": "",
      "tags": ""
    },
    {
      "cat": "hotels",
      "name": "Lotus",
      "lat": 25.6879377,
      "lng": 32.6310774,
      "address": "",
      "city": "",
      "phone": "",
      "website": "",
      "working_hours": "",
      "description": "",
      "tags": ""
    },
    {
      "cat": "hotels",
      "name": "Phebes",
      "lat": 25.7130497,
      "lng": 32.6245068,
      "address": "",
      "city": "",
      "phone": "",
      "website": "",
      "working_hours": "",
      "description": "",
      "tags": ""
    },
    {
      "cat": "hotels",
      "name": "Jannah Elsahara Hotel",
      "lat": 25.7485958,
      "lng": 32.6351201,
      "address": "",
      "city": "",
      "phone": "",
      "website": "",
      "working_hours": "",
      "description": "",
      "tags": ""
    },
    {
      "cat": "hotels",
      "name": "Hadi Guesthouse",
      "lat": 25.7015193,
      "lng": 32.6321248,
      "address": "",
      "city": "",
      "phone": "",
      "website": "",
      "working_hours": "",
      "description": "",
      "tags": ""
    },
    {
      "cat": "hotels",
      "name": "Jewel of the valley - Howard Carter Hotel",
      "lat": 25.6886593,
      "lng": 32.6217056,
      "address": "",
      "city": "",
      "phone": "",
      "website": "",
      "working_hours": "",
      "description": "",
      "tags": ""
    },
    {
      "cat": "hotels",
      "name": "Baeirat",
      "lat": 25.6855794,
      "lng": 32.6213202,
      "address": "",
      "city": "",
      "phone": "",
      "website": "",
      "working_hours": "",
      "description": "",
      "tags": ""
    }
  ],
  "education": [
    {
      "cat": "education",
      "name": "مدرسة نجع الجزيرة",
      "lat": 26.1226111,
      "lng": 32.4385846,
      "address": "نجع الجزيرة",
      "city": "",
      "phone": "",
      "website": "",
      "working_hours": "",
      "description": "",
      "tags": ""
    },
    {
      "cat": "education",
      "name": "مدرسة البلابيش",
      "lat": 26.1177657,
      "lng": 32.431448,
      "address": "الصبريات",
      "city": "",
      "phone": "",
      "website": "",
      "working_hours": "",
      "description": "",
      "tags": ""
    },
    {
      "cat": "education",
      "name": "مدرسة ابو بكر الصديق",
      "lat": 26.1171218,
      "lng": 32.4363111,
      "address": "الصبريات",
      "city": "",
      "phone": "",
      "website": "",
      "working_hours": "",
      "description": "",
      "tags": ""
    },
    {
      "cat": "education",
      "name": "المقربية الابتدائية الجديدة",
      "lat": 25.9335696,
      "lng": 32.7883425,
      "address": "المقربية الابتدائية الجديدة",
      "city": "",
      "phone": "",
      "website": "",
      "working_hours": "",
      "description": "",
      "tags": ""
    },
    {
      "cat": "education",
      "name": "داود تكلا بك",
      "lat": 26.0601147,
      "lng": 32.2137074,
      "address": "",
      "city": "",
      "phone": "",
      "website": "",
      "working_hours": "",
      "description": "",
      "tags": ""
    },
    {
      "cat": "education",
      "name": "faculty of arts",
      "lat": 26.1905774,
      "lng": 32.7432366,
      "address": "",
      "city": "",
      "phone": "",
      "website": "",
      "working_hours": "",
      "description": "",
      "tags": ""
    },
    {
      "cat": "education",
      "name": "faculty of education",
      "lat": 26.1901153,
      "lng": 32.7438159,
      "address": "",
      "city": "",
      "phone": "",
      "website": "",
      "working_hours": "",
      "description": "",
      "tags": ""
    },
    {
      "cat": "education",
      "name": "الأقصر الثانوية للمتفوقين في العلوم والتكنولوجيا",
      "lat": 25.736702,
      "lng": 32.7617347,
      "address": "",
      "city": "",
      "phone": "",
      "website": "",
      "working_hours": "",
      "description": "",
      "tags": ""
    },
    {
      "cat": "education",
      "name": "Luxor mechanical and technical school",
      "lat": 25.6801548,
      "lng": 32.6367726,
      "address": "",
      "city": "",
      "phone": "",
      "website": "",
      "working_hours": "",
      "description": "",
      "tags": ""
    },
    {
      "cat": "education",
      "name": "Luxor primary school",
      "lat": 25.6944851,
      "lng": 32.6379234,
      "address": "",
      "city": "",
      "phone": "",
      "website": "",
      "working_hours": "",
      "description": "",
      "tags": ""
    },
    {
      "cat": "education",
      "name": "Luxor millatary secondary school",
      "lat": 25.6936633,
      "lng": 32.6354951,
      "address": "",
      "city": "",
      "phone": "",
      "website": "",
      "working_hours": "",
      "description": "",
      "tags": ""
    },
    {
      "cat": "education",
      "name": "El Shohada School",
      "lat": 25.6827008,
      "lng": 32.634248,
      "address": "",
      "city": "",
      "phone": "",
      "website": "",
      "working_hours": "",
      "description": "",
      "tags": ""
    },
    {
      "cat": "education",
      "name": "جامعة قنا",
      "lat": 26.1963678,
      "lng": 32.7435124,
      "address": "",
      "city": "",
      "phone": "",
      "website": "https://www.svu.edu.eg/",
      "working_hours": "",
      "description": "",
      "tags": ""
    },
    {
      "cat": "education",
      "name": "مدرسة دريمز",
      "lat": 26.2267551,
      "lng": 32.7443746,
      "address": "",
      "city": "",
      "phone": "",
      "website": "",
      "working_hours": "",
      "description": "",
      "tags": ""
    },
    {
      "cat": "education",
      "name": "مدرسة تحيا مصر 2",
      "lat": 26.2287571,
      "lng": 32.7443809,
      "address": "",
      "city": "",
      "phone": "",
      "website": "",
      "working_hours": "",
      "description": "",
      "tags": ""
    },
    {
      "cat": "education",
      "name": "Hebet El Nil",
      "lat": 25.7049246,
      "lng": 32.6260941,
      "address": "",
      "city": "",
      "phone": "",
      "website": "",
      "working_hours": "",
      "description": "",
      "tags": ""
    },
    {
      "cat": "education",
      "name": "مدرسة نجع عطية الابتدائية",
      "lat": 26.0916728,
      "lng": 32.1961867,
      "address": "",
      "city": "",
      "phone": "",
      "website": "",
      "working_hours": "",
      "description": "",
      "tags": ""
    },
    {
      "cat": "education",
      "name": "مدرسة نجع عبد القادر الابتدائية",
      "lat": 26.0814997,
      "lng": 32.2064582,
      "address": "",
      "city": "",
      "phone": "",
      "website": "",
      "working_hours": "",
      "description": "",
      "tags": ""
    },
    {
      "cat": "education",
      "name": "جامعة قنا الأهلية",
      "lat": 26.2073611,
      "lng": 32.7453917,
      "address": "",
      "city": "",
      "phone": "",
      "website": "http://www.svnu.edu.eg/",
      "working_hours": "",
      "description": "",
      "tags": ""
    }
  ],
  "government": [
    {
      "cat": "government",
      "name": "ديوان ال رشوان عمدة المخادمة",
      "lat": 26.2027673,
      "lng": 32.6300629,
      "address": "ديوان العمدة",
      "city": "",
      "phone": "",
      "website": "",
      "working_hours": "",
      "description": "",
      "tags": ""
    },
    {
      "cat": "government",
      "name": "Poste de police",
      "lat": 25.6414185,
      "lng": 32.5849662,
      "address": "",
      "city": "",
      "phone": "",
      "website": "",
      "working_hours": "",
      "description": "",
      "tags": ""
    },
    {
      "cat": "government",
      "name": "Luxor Post Office",
      "lat": 25.6987343,
      "lng": 32.6412516,
      "address": "",
      "city": "",
      "phone": "",
      "website": "",
      "working_hours": "",
      "description": "",
      "tags": ""
    },
    {
      "cat": "government",
      "name": "Checkpoint k 42",
      "lat": 26.3658216,
      "lng": 33.0269167,
      "address": "",
      "city": "",
      "phone": "",
      "website": "",
      "working_hours": "",
      "description": "",
      "tags": ""
    },
    {
      "cat": "government",
      "name": "Checkpoint k 27",
      "lat": 26.3284849,
      "lng": 32.8897369,
      "address": "",
      "city": "",
      "phone": "",
      "website": "",
      "working_hours": "",
      "description": "",
      "tags": ""
    },
    {
      "cat": "government",
      "name": "Police Checkpoint",
      "lat": 26.2177747,
      "lng": 32.748356,
      "address": "",
      "city": "",
      "phone": "",
      "website": "",
      "working_hours": "",
      "description": "",
      "tags": ""
    },
    {
      "cat": "government",
      "name": "نقطة الشرطة",
      "lat": 26.0112769,
      "lng": 32.2974672,
      "address": "",
      "city": "",
      "phone": "",
      "website": "",
      "working_hours": "",
      "description": "",
      "tags": ""
    },
    {
      "cat": "government",
      "name": "إدارة مرور الأقصر",
      "lat": 25.6840469,
      "lng": 32.6514415,
      "address": "",
      "city": "",
      "phone": "",
      "website": "",
      "working_hours": "",
      "description": "",
      "tags": ""
    },
    {
      "cat": "government",
      "name": "Egypt Post",
      "lat": 26.1593261,
      "lng": 32.7161038,
      "address": "",
      "city": "",
      "phone": "",
      "website": "",
      "working_hours": "",
      "description": "",
      "tags": ""
    },
    {
      "cat": "government",
      "name": "Tourism Police",
      "lat": 25.700119,
      "lng": 32.6382608,
      "address": "",
      "city": "",
      "phone": "",
      "website": "",
      "working_hours": "",
      "description": "",
      "tags": ""
    },
    {
      "cat": "government",
      "name": "Military/Police Checkpoint",
      "lat": 25.7353521,
      "lng": 32.598526,
      "address": "",
      "city": "",
      "phone": "",
      "website": "",
      "working_hours": "",
      "description": "",
      "tags": ""
    },
    {
      "cat": "government",
      "name": "Luxor Fire department",
      "lat": 25.6859695,
      "lng": 32.6337743,
      "address": "",
      "city": "",
      "phone": "",
      "website": "",
      "working_hours": "",
      "description": "",
      "tags": ""
    },
    {
      "cat": "government",
      "name": "police station",
      "lat": 25.685001,
      "lng": 32.6332862,
      "address": "",
      "city": "",
      "phone": "",
      "website": "",
      "working_hours": "",
      "description": "",
      "tags": ""
    }
  ],
  "shops": [
    {
      "cat": "shops",
      "name": "بازار",
      "lat": 25.7020062,
      "lng": 32.6439595,
      "address": "",
      "city": "",
      "phone": "",
      "website": "",
      "working_hours": "",
      "description": "",
      "tags": ""
    },
    {
      "cat": "shops",
      "name": "سوبر ماركت الإمام",
      "lat": 25.9973437,
      "lng": 32.8500418,
      "address": "",
      "city": "",
      "phone": "",
      "website": "",
      "working_hours": "",
      "description": "",
      "tags": ""
    },
    {
      "cat": "shops",
      "name": "Ragab and Sons",
      "lat": 25.6945803,
      "lng": 32.6415735,
      "address": "",
      "city": "",
      "phone": "",
      "website": "",
      "working_hours": "",
      "description": "",
      "tags": ""
    },